{
"type": "FeatureCollection",
"name": "Access Points",
"features": [
{ "type": "Feature", "properties": { "Name": "Under Central", "description": "Gateline code: 1066", "gx_media_links": null, "Code": null }, "geometry": { "type": "Point", "coordinates": [ -4.2590511, 55.8590202, 0.0 ] } },
{ "type": "Feature", "properties": { "Name": "Clyde Place", "description": null, "gx_media_links": null, "Code": null }, "geometry": { "type": "Point", "coordinates": [ -4.2587834, 55.854529, 0.0 ] } },
{ "type": "Feature", "properties": { "Name": "Arch 67", "description": null, "gx_media_links": null, "Code": null }, "geometry": { "type": "Point", "coordinates": [ -4.2603766, 55.8527614, 0.0 ] } },
{ "type": "Feature", "properties": { "Name": "Salkeld Street signal box", "description": null, "gx_media_links": null, "Code": null }, "geometry": { "type": "Point", "coordinates": [ -4.2612716, 55.8504238, 0.0 ] } },
{ "type": "Feature", "properties": { "Name": "Salkeld Street", "description": "Code: 0534", "gx_media_links": null, "Code": null }, "geometry": { "type": "Point", "coordinates": [ -4.2607459, 55.8492312, 0.0 ] } },
{ "type": "Feature", "properties": { "Name": "Eglinton Street", "description": null, "gx_media_links": null, "Code": null }, "geometry": { "type": "Point", "coordinates": [ -4.2603489, 55.8492071, 0.0 ] } },
{ "type": "Feature", "properties": { "Name": "Cook Street", "description": null, "gx_media_links": null, "Code": null }, "geometry": { "type": "Point", "coordinates": [ -4.2652198, 55.8492312, 0.0 ] } },
{ "type": "Feature", "properties": { "Name": "Blue Best Fit Garage Steps", "description": null, "gx_media_links": "https://mymaps.usercontent.google.com/hostedimage/m/*/3AE5a_GxjrqI6NlHAwR3i3lGzzNLStFv408pOmVw2w5B6Dh_ZdeZBXms-NAC7P8wnceL8toaZzl8CoFm2f7QgVULIov8rTG_6KAgL2JAEdMe7ndidklL3Cbli5M65ZzrV3Tql1g63ti1psg-OLHgbGfMQ8lZFDk_vVbzBIgTaEALj89yy0mBBkhKgdGl7WZBtK6J8KPIVlAlRnJ-ZVpK8ApK2JFYWhFQb_g3eppAUFgUxWF10r_AlCSB7_x9ACKQ?authuser=0&fife=s16383", "Code": null }, "geometry": { "type": "Point", "coordinates": [ -4.2618227, 55.8452725, 0.0 ] } },
{ "type": "Feature", "properties": { "Name": "Back of Garage (Muirhouse line)", "description": null, "gx_media_links": "https://mymaps.usercontent.google.com/hostedimage/m/*/3AE5a_Gx5iXcto8FUGB2QueGdoMZd8ipYMmR391mlupklPVWm8UBphtOyswl7n0lZa7EGyjIerwRvxQp91yPp7EwjwpD-fg_gUJkCCtSRwZ07zQg1RckiWnDQS73RWbJRfEVGe4THeKqM5HA6bCXeLicbn2c9K1BvPA2MPCS-_4MjKy5cJPYtZzrwOlnKbnSmu49sLNHgsW_B2K4Kn7nZLcgHiunMrQhRbHiGK2R8Imvabl2JtnW23boEIiHy2aM?authuser=0&fife=s16383", "Code": null }, "geometry": { "type": "Point", "coordinates": [ -4.262358, 55.8453754, 0.0 ] } },
{ "type": "Feature", "properties": { "Name": "Star Bar (WCM/CLY)", "description": null, "gx_media_links": null, "Code": null }, "geometry": { "type": "Point", "coordinates": [ -4.2612813, 55.8437502, 0.0 ] } },
{ "type": "Feature", "properties": { "Name": "Star Bar (Larkfield Junction)", "description": null, "gx_media_links": null, "Code": null }, "geometry": { "type": "Point", "coordinates": [ -4.2616407, 55.8434761, 0.0 ] } },
{ "type": "Feature", "properties": { "Name": "Polmadie", "description": null, "gx_media_links": null, "Code": null }, "geometry": { "type": "Point", "coordinates": [ -4.2492921, 55.8392687, 0.0 ] } },
{ "type": "Feature", "properties": { "Name": "Polmadie gate", "description": null, "gx_media_links": null, "Code": null }, "geometry": { "type": "Point", "coordinates": [ -4.2441969, 55.8375124, 0.0 ] } },
{ "type": "Feature", "properties": { "Name": "Polmadie Bridge", "description": "Code: C1560Z", "gx_media_links": null, "Code": null }, "geometry": { "type": "Point", "coordinates": [ -4.2424803, 55.8364641, 0.0 ] } },
{ "type": "Feature", "properties": { "Name": "Alstom yard", "description": null, "gx_media_links": null, "Code": null }, "geometry": { "type": "Point", "coordinates": [ -4.2416229, 55.836746, 0.0 ] } },
{ "type": "Feature", "properties": { "Name": "Jessie Street", "description": null, "gx_media_links": null, "Code": null }, "geometry": { "type": "Point", "coordinates": [ -4.2386035, 55.8346482, 0.0 ] } },
{ "type": "Feature", "properties": { "Name": "Glencairn", "description": null, "gx_media_links": null, "Code": null }, "geometry": { "type": "Point", "coordinates": [ -4.2220262, 55.8313044, 0.0 ] } },
{ "type": "Feature", "properties": { "Name": "Old Training School West Curve", "description": null, "gx_media_links": null, "Code": null }, "geometry": { "type": "Point", "coordinates": [ -4.2146884, 55.8317864, 0.0 ] } },
{ "type": "Feature", "properties": { "Name": "Rutherglen Steps", "description": null, "gx_media_links": null, "Code": null }, "geometry": { "type": "Point", "coordinates": [ -4.2161207, 55.8303538, 0.0 ] } },
{ "type": "Feature", "properties": { "Name": "Bridgeton Yard", "description": null, "gx_media_links": null, "Code": null }, "geometry": { "type": "Point", "coordinates": [ -4.2126045, 55.8308338, 0.0 ] } },
{ "type": "Feature", "properties": { "Name": "Rutherglen Relay Room", "description": null, "gx_media_links": null, "Code": null }, "geometry": { "type": "Point", "coordinates": [ -4.211832, 55.8304451, 0.0 ] } },
{ "type": "Feature", "properties": { "Name": "Granny Flats", "description": null, "gx_media_links": null, "Code": null }, "geometry": { "type": "Point", "coordinates": [ -4.2054533, 55.829221, 0.0 ] } },
{ "type": "Feature", "properties": { "Name": "Coup", "description": null, "gx_media_links": null, "Code": null }, "geometry": { "type": "Point", "coordinates": [ -4.1979987, 55.8289974, 0.0 ] } },
{ "type": "Feature", "properties": { "Name": "Bogleshole", "description": null, "gx_media_links": null, "Code": null }, "geometry": { "type": "Point", "coordinates": [ -4.1868023, 55.8266174, 0.0 ] } },
{ "type": "Feature", "properties": { "Name": "Fratellis", "description": null, "gx_media_links": null, "Code": null }, "geometry": { "type": "Point", "coordinates": [ -4.1815952, 55.8234519, 0.0 ] } },
{ "type": "Feature", "properties": { "Name": "Cambuslang Station", "description": null, "gx_media_links": null, "Code": null }, "geometry": { "type": "Point", "coordinates": [ -4.1729301, 55.8197581, 0.0 ] } },
{ "type": "Feature", "properties": { "Name": "Christie Place", "description": null, "gx_media_links": null, "Code": null }, "geometry": { "type": "Point", "coordinates": [ -4.1639552, 55.8179699, 0.0 ] } },
{ "type": "Feature", "properties": { "Name": "Kirkhill Relay Room", "description": null, "gx_media_links": null, "Code": null }, "geometry": { "type": "Point", "coordinates": [ -4.1554057, 55.8149076, 0.0 ] } },
{ "type": "Feature", "properties": { "Name": "Kirkhill Station", "description": null, "gx_media_links": null, "Code": null }, "geometry": { "type": "Point", "coordinates": [ -4.1679209, 55.8142143, 0.0 ] } },
{ "type": "Feature", "properties": { "Name": "Vicarland Place", "description": null, "gx_media_links": null, "Code": null }, "geometry": { "type": "Point", "coordinates": [ -4.1656893, 55.8138587, 0.0 ] } },
{ "type": "Feature", "properties": { "Name": "West Coats Road", "description": null, "gx_media_links": null, "Code": null }, "geometry": { "type": "Point", "coordinates": [ -4.1772043, 55.8149426, 0.0 ] } },
{ "type": "Feature", "properties": { "Name": "Burnside Hotel", "description": null, "gx_media_links": null, "Code": null }, "geometry": { "type": "Point", "coordinates": [ -4.1974844, 55.8161703, 0.0 ] } },
{ "type": "Feature", "properties": { "Name": "Burnside Station", "description": null, "gx_media_links": null, "Code": null }, "geometry": { "type": "Point", "coordinates": [ -4.2013253, 55.8168936, 0.0 ] } },
{ "type": "Feature", "properties": { "Name": "Blairtum Drive", "description": null, "gx_media_links": null, "Code": null }, "geometry": { "type": "Point", "coordinates": [ -4.2064522, 55.8167464, 0.0 ] } },
{ "type": "Feature", "properties": { "Name": "Croftfoot Station", "description": null, "gx_media_links": null, "Code": null }, "geometry": { "type": "Point", "coordinates": [ -4.2278661, 55.8183441, 0.0 ] } },
{ "type": "Feature", "properties": { "Name": "Kings Park Station", "description": null, "gx_media_links": null, "Code": null }, "geometry": { "type": "Point", "coordinates": [ -4.2443785, 55.8193776, 0.0 ] } },
{ "type": "Feature", "properties": { "Name": "Aikenhead Road Bus Stop", "description": null, "gx_media_links": null, "Code": null }, "geometry": { "type": "Point", "coordinates": [ -4.2503071, 55.8198203, 0.0 ] } },
{ "type": "Feature", "properties": { "Name": "Fence to North Curve/locs", "description": "Not official access", "gx_media_links": null, "Code": null }, "geometry": { "type": "Point", "coordinates": [ -4.252382, 55.820012, 0.0 ] } },
{ "type": "Feature", "properties": { "Name": "Cathcart REB", "description": null, "gx_media_links": null, "Code": null }, "geometry": { "type": "Point", "coordinates": [ -4.2581196, 55.8198495, 0.0 ] } },
{ "type": "Feature", "properties": { "Name": "Kirkhills (Cathcart)", "description": null, "gx_media_links": null, "Code": null }, "geometry": { "type": "Point", "coordinates": [ -4.2578031, 55.8184164, 0.0 ] } },
{ "type": "Feature", "properties": { "Name": "Cathcart Station", "description": null, "gx_media_links": null, "Code": null }, "geometry": { "type": "Point", "coordinates": [ -4.261311, 55.817533, 0.0 ] } },
{ "type": "Feature", "properties": { "Name": "Beechings", "description": null, "gx_media_links": null, "Code": null }, "geometry": { "type": "Point", "coordinates": [ -4.2639486, 55.8165305, 0.0 ] } },
{ "type": "Feature", "properties": { "Name": "Elrig Road", "description": null, "gx_media_links": null, "Code": null }, "geometry": { "type": "Point", "coordinates": [ -4.265916, 55.8159775, 0.0 ] } },
{ "type": "Feature", "properties": { "Name": "Muirskeith Crescent", "description": null, "gx_media_links": null, "Code": null }, "geometry": { "type": "Point", "coordinates": [ -4.2672152, 55.8174477, 0.0 ] } },
{ "type": "Feature", "properties": { "Name": "Whitemoss Avenue (Muirend)", "description": null, "gx_media_links": null, "Code": null }, "geometry": { "type": "Point", "coordinates": [ -4.274769, 55.8095136, 0.0 ] } },
{ "type": "Feature", "properties": { "Name": "Williamwood Station", "description": null, "gx_media_links": null, "Code": null }, "geometry": { "type": "Point", "coordinates": [ -4.2899339, 55.7932987, 0.0 ] } },
{ "type": "Feature", "properties": { "Name": "Ailsa Drive", "description": null, "gx_media_links": null, "Code": null }, "geometry": { "type": "Point", "coordinates": [ -4.3000375, 55.7916551, 0.0 ] } },
{ "type": "Feature", "properties": { "Name": "Whitecraigs Station", "description": null, "gx_media_links": null, "Code": null }, "geometry": { "type": "Point", "coordinates": [ -4.310081, 55.7904588, 0.0 ] } },
{ "type": "Feature", "properties": { "Name": "Patterton Station", "description": null, "gx_media_links": null, "Code": null }, "geometry": { "type": "Point", "coordinates": [ -4.3340133, 55.7909323, 0.0 ] } },
{ "type": "Feature", "properties": { "Name": "Aurs Road", "description": null, "gx_media_links": null, "Code": null }, "geometry": { "type": "Point", "coordinates": [ -4.3735081, 55.7893298, 0.0 ] } },
{ "type": "Feature", "properties": { "Name": "Balgraystone Road", "description": null, "gx_media_links": null, "Code": null }, "geometry": { "type": "Point", "coordinates": [ -4.3829061, 55.7864415, 0.0 ] } },
{ "type": "Feature", "properties": { "Name": "Springhill Road/Five Ways", "description": null, "gx_media_links": null, "Code": null }, "geometry": { "type": "Point", "coordinates": [ -4.3957028, 55.7851508, 0.0 ] } },
{ "type": "Feature", "properties": { "Name": "Springfield Road", "description": null, "gx_media_links": "https://mymaps.usercontent.google.com/hostedimage/m/*/3AE5a_GxU2L9mpzspqhZ6_NVcDyGxfUw1f7CkY0FUK1NT3lRs3aj5GUyi3YXwX3s1MgxgddEkMSlAEC4SuM47rNEOBFDS2i_CuA34OdJm66iGEaYxIh8JEbrCX7BviFMmoT9zYP2UHeBLSccT2BN9on71QHJ37PFOwyHq9r1xPIoK_yjSZBGR0I3V5jv3VmElYj7Qg2UaEP1CzhixZZM1T76Hdf8g2AExSMKeY5mJzdBvxQETuMqFPaIKf7W9R98?authuser=0&fife=s16383", "Code": null }, "geometry": { "type": "Point", "coordinates": [ -4.3995115, 55.7867675, 0.0 ] } },
{ "type": "Feature", "properties": { "Name": "Duncarnock Crescent", "description": null, "gx_media_links": "https://mymaps.usercontent.google.com/hostedimage/m/*/3AE5a_Gw1s1JbMHzcAFaEtG0KHJlqomXhlqx5ZmKuM27_INOb6eAuP2JvBDPQEU_WPII5fyW-ndpHhzbfFag0blfbaCx3bs0H05R7DzbRDEd4Br3BrZj69zBTrdf7ReOpb2TwF7Dd8lnTojx0lC8f4kF5QpIF8DU2M6ombyLITQ_SxuRa2RFu0bY5qsRdtYxWrItIwftQSpPoLscsx_SE_Nk3zuXq364ZBOYUpO4trYwbpOTJjpyW-bGc71Lp69Q?authuser=0&fife=s16383", "Code": null }, "geometry": { "type": "Point", "coordinates": [ -4.4189706, 55.7837036, 0.0 ] } },
{ "type": "Feature", "properties": { "Name": "Neilston Station", "description": null, "gx_media_links": null, "Code": null }, "geometry": { "type": "Point", "coordinates": [ -4.4266959, 55.783024, 0.0 ] } },
{ "type": "Feature", "properties": { "Name": "East Kilbride Station", "description": null, "gx_media_links": "https://mymaps.usercontent.google.com/hostedimage/m/*/3AE5a_GxBJBJ1lVgn6gnYHmEPdsPY5VFZPrcmsCKnUGMvfOwBo7vgsGdJXjeDcBVNy1OALcVQ_Nohxg4Ybhcgq-KFZ8kjQHnV_4oM1Qk3Hrf0lAoXahZ81_18S6ZsMjtoem5DNBp_PUaiAdU4w32FqI1NdkYGpecoGC6ANqiwDvRiin0hw8tkTbCTOpzpml-lxhnZqttUstJJU4TPp0YrLh7NPBCITqAe5LEEMc5KB-npYhctw-GfPDXGoudHECE?authuser=0&fife=s16383", "Code": null }, "geometry": { "type": "Point", "coordinates": [ -4.1819837, 55.7657088, 0.0 ] } },
{ "type": "Feature", "properties": { "Name": "Kittoch Park", "description": null, "gx_media_links": "https://mymaps.usercontent.google.com/hostedimage/m/*/3AE5a_GyGSdLBnVJIkOujIh7HhFJoS0em94yE1axnBj058FOIQKXcfCrBeBcQqihi4a84yOMFDa6ups1uJY9TDJnk0NJ1NATBBXOWcFfw8xSNRUV0c1kLUrKl_Ef4fcwNhxKpVSsLLAXEFvcQ4V0HqdUAy0s5EVi-I8Xy-4V0aKgQD0zQnvoiaFU-ldMeTiVwLcQimFNs5mOJ-hodG14qF8s_R4qXt4su_jij5GZfMy-dsWslxjGcICs8kTywW-U?authuser=0&fife=s16383", "Code": null }, "geometry": { "type": "Point", "coordinates": [ -4.1941033, 55.7654205, 0.0 ] } },
{ "type": "Feature", "properties": { "Name": "Hairmyres old station", "description": null, "gx_media_links": "https://mymaps.usercontent.google.com/hostedimage/m/*/3AE5a_GzMXVNL5bxt2RdKVgCaYSkQbm3HEIe-AJva0yXd6FBN3LGCpxqtscidmKTrw_T9jXvfpfdkxWmi9TFuCGdDUXVpkgZZFsbKzH2DvM_om4L9WyBkY-dhH3kJVwyHMuyYFuE5EF_GQsh-UkJkDrqRCtvtHTZ7Hvub687YXGvBaGYH4Ea2QAz0n7r3zGacKsZanGfNQYcH8BvigkeXsy4hNe5nLQW3Y0OUY09uyi6SUMLav_cynNk17G2nYbY?authuser=0&fife=s16383", "Code": null }, "geometry": { "type": "Point", "coordinates": [ -4.2201357, 55.7618196, 0.0 ] } },
{ "type": "Feature", "properties": { "Name": "Thorntonhall Station", "description": null, "gx_media_links": "https://mymaps.usercontent.google.com/hostedimage/m/*/3AE5a_Gy4ZT0sp68fZjv2AA4D-EZJWZ1vBTAAzpCWj50nAkPlkWxTOaL9iLFhBeRo7Kev6GAo1bUbKbGDMYcyXnfKgCGrDot9GABk8mn_FYNLXRIF7__UBFzFWkXd2qOPLwgDl7VsIqYsIbvSZVg4CTejVa7gOKSEd8zsGW4eiNHO026CKi4ERgiDRngHyvAGARiy-dMbcDwy3bWzoZfYoQcmTFHoZhc5VMqM1URRnfd8HSTjTe-wpwhiwdVb69g?authuser=0&fife=s16383", "Code": null }, "geometry": { "type": "Point", "coordinates": [ -4.2511678, 55.7688264, 0.0 ] } },
{ "type": "Feature", "properties": { "Name": "Electricity substation", "description": null, "gx_media_links": "https://mymaps.usercontent.google.com/hostedimage/m/*/3AE5a_GzlmZGQUrkc1Mrdiovwjfvkqm5xYBC2APzGsNTGIl_1-XBtfp8vvbLZyVtMH5_AGc95ahRPjFLTzqwXx9Wd3yr1iCVBBaDz-UILQySDW5aW0-49_J7Wk9KYGo_RPFDt1fKYjH-QLGNpOJ-IfT652qkA8q9Nqp5qNGKXC6FuSKSTyADxumtHz2Lar5PQUD4fOXmXMzQQKYjuwsZca2ADTyzkV64m7sJcPTazmhM5Au3HwtJVPT0nkstEAu4?authuser=0&fife=s16383", "Code": null }, "geometry": { "type": "Point", "coordinates": [ -4.2609669, 55.7746518, 0.0 ] } },
{ "type": "Feature", "properties": { "Name": "Busby Station", "description": null, "gx_media_links": "https://mymaps.usercontent.google.com/hostedimage/m/*/3AE5a_GyqTPFlqj2HrSDUzrYdzPBCUnAV2AVIwHvDr_z-3EXxgW09oFAOW4-ZTXtYjFcCiVP-gCl6f3TagSCeNO9ZJwWaH6ru_Zb8_eobblytefQdilBw-OrpYB2bKIWyazV3sZSftHabqeepvCtcaLcQhWTqrFucn7YGI3Z_K7Jzxm9Is4EvZuFKjfbZ23EauKhEayL_-gcuZg2pQbCKUv9etiZGxC51qFYirX6sSYmxhio-A4L8KsfCQ7VVxpM?authuser=0&fife=s16383", "Code": null }, "geometry": { "type": "Point", "coordinates": [ -4.2620344, 55.7803163, 0.0 ] } },
{ "type": "Feature", "properties": { "Name": "Happy Days nursery", "description": null, "gx_media_links": "https://mymaps.usercontent.google.com/hostedimage/m/*/3AE5a_Gz8m4vaYqqD8TNrtCvHbwPfb9QnTBwhuy58YylWKDUjF8dJp9JUJ4WZn6-lwjzyAgTi8eMqEk0MFk5ossV0M6tResR4YjmzCPzpF6Pwnp-lpOYKh8bF9LPfl39xw4lIaqBF21dJiczVj36sXFhsqC0gESdVV0BgnIAuG-0p4I4JDoBhVzhPZqgqVQJNamvWHtH2iKYEweZzVOb17TErCX5rU6YVCJxXkD8DULPzwS1OyjqeQVHhM_6-n-E?authuser=0&fife=s16383", "Code": null }, "geometry": { "type": "Point", "coordinates": [ -4.2632414, 55.7821189, 0.0 ] } },
{ "type": "Feature", "properties": { "Name": "Moray Drive", "description": null, "gx_media_links": "https://mymaps.usercontent.google.com/hostedimage/m/*/3AE5a_GzDeyUtkP0pi6SXshdIJOUD-wVDmhw4bsP9cHI7T1ErMr8KhoyNEtCorDghyjXBZSSPHdsHEaOdiGColcIBU0NI9CQwaFqCYucku3UD8AUt2uUuC8DONvB3Wts_KncxOuN3LbJ7NyJbutqR2njDoJqXrAWM_aNXLJ5ifAPvOGLIUzaAaDlBRJ6UHWnvtAh-fVZyzQ-rVWoXZ50KM05qILwUr69k5RhOir-f3bPTXneaLev_VnMCwkJlioA?authuser=0&fife=s16383", "Code": null }, "geometry": { "type": "Point", "coordinates": [ -4.2701892, 55.7874901, 0.0 ] } },
{ "type": "Feature", "properties": { "Name": "Clarkston Station", "description": null, "gx_media_links": "https://mymaps.usercontent.google.com/hostedimage/m/*/3AE5a_GzYrsfpvWOo71GR121Ql9ZPyf8qe91xk4P1GTu2oMisfBnm8n6ohuQfjfx0oFMPnEhaanBxneIDT17zaeEB2G_dwStfHuf-g3rSaGaYd5JlhEkcUxsAAX_KJAXuO7LgxMh_7045rAy6J6mCsvYlvE-LfVEI-N4IftkdHwpGO6zAdwmYgAVO-gRDAywNQkZsSERtufiXJhOXXFridf12fUhR6d-iYNJVhHDMHKEe-HFt0jIRFXqovDlCCjk?authuser=0&fife=s16383", "Code": null }, "geometry": { "type": "Point", "coordinates": [ -4.2757952, 55.7893768, 0.0 ] } },
{ "type": "Feature", "properties": { "Name": "Giffnock Station", "description": null, "gx_media_links": "https://mymaps.usercontent.google.com/hostedimage/m/*/3AE5a_GwvHBVjSDgDwxOXqVxEFui9ToXI0bvTUJTI2osDEbwVzhGFYAono0Fh7S8TJvogDCzbPuEtTVoBBGpK7Brd_etkBRLgzf85jTRpP8mU_fojTV2nm_yiuEG6QnayF_Q25vbNFrmJSZA9W2w7Sv5-F8yA0bLintvnXu8JPJv3HcvM5KCQDyQ29l9YLyreaUVSSHAWBUE8wqKMFuSTuEPLBtLQscZi2F5xK0REFMgr6S8wdhZAq8Ix-mN8DYc?authuser=0&fife=s16383", "Code": null }, "geometry": { "type": "Point", "coordinates": [ -4.2931027, 55.803992, 0.0 ] } },
{ "type": "Feature", "properties": { "Name": "Burnfield Road", "description": null, "gx_media_links": "https://mymaps.usercontent.google.com/hostedimage/m/*/3AE5a_Gx9pJMFyh2r26nmRnrZbL7i6pBKEQHeS08Wd1Q-IIE34OPY6ARPJKFauPDTNOEFL67CgZUnRL4khqxjxQPO0ONnqOKABFDRgoIzm4bdNxuqfKEONU94WHtE5Dn_4742NL4YSIbyYymtkbzGZot3hz8weQ0emA2m4xGQXNHDDmMCzKV9popmWe6cjH37HN7EAZ24ClOhoXMc8UEb7Yw8ZY3A-ZQTn2n7oqN8--g9PgHMEsUMvnkoqliE0OY?authuser=0&fife=s16383", "Code": null }, "geometry": { "type": "Point", "coordinates": [ -4.2989382, 55.8084901, 0.0 ] } },
{ "type": "Feature", "properties": { "Name": "Thornliebank Station", "description": null, "gx_media_links": "https://mymaps.usercontent.google.com/hostedimage/m/*/3AE5a_GzC4-EtDS7hkXmanhk9imljQNHZ-NuVqutSgQIEtwQeqg3BIrpZyIiGjWqHUrVHwS1i5PYxsFtuSrwRhHCjYQDVU17euIBb3GJT3xHloovwtuPYTBIncS0rItHwIbPj1YngT4v-gPtP_oQscf2TrZG_6Np4f9ycefhxtTjA0DKgM07y7pJ1qB1uzdQn_3wOEYfmuFFNA47Uv5FWwLwvYxM_QTEhyKdiR1v_8A5pI7WxKOY9KJJh1kk3Dbo?authuser=0&fife=s16383", "Code": null }, "geometry": { "type": "Point", "coordinates": [ -4.3117072, 55.8111831, 0.0 ] } },
{ "type": "Feature", "properties": { "Name": "Lane off Boydstone Road", "description": null, "gx_media_links": "https://mymaps.usercontent.google.com/hostedimage/m/*/3AE5a_Gx1XmBsRBzUXf7_u-oVfCKKsfYYzvo4n0zvSFzzqZ5NLPUSP4bBvCsuEfpVXbyiNOf5U2GArECn8J0UrUylAGJB7XWAGgIEa_gNTWFSASSHHN4r7JpvXMQEPpHCRv02onAOd4VUgf7DTJl9xsoaIrjdMHX5DuDTRMqOJ6Dt-98-FJ-IhyORQaXsu_yMjM-gGjo85Awfik0-sYe2C7g9aUlxSn_73oAG-ObuVWUQhL68s3DHioJD2Zz6XiY?authuser=0&fife=s16383", "Code": null }, "geometry": { "type": "Point", "coordinates": [ -4.3127663, 55.8123415, 0.0 ] } },
{ "type": "Feature", "properties": { "Name": "Busby Junction Relay Room", "description": null, "gx_media_links": "https://mymaps.usercontent.google.com/hostedimage/m/*/3AE5a_GwnLWHhfM-W_TREbNUaIQj5Hknn6Y6P77Di_ZjQXmdXL5yBB5vX1Hs6KVHwtrdDYHimv8gVABF8WtuCvjAYWxNI2hnBVbCx57EkDyrwSnkrOv4N_oVMzh1DlxFhx7kGN2FptxIDfKa1SODnTORp48JaIq-CGBjr1WaqPP3BxXOzUrmXcfjldjGgrVMeeqoxkxg2aQrl-V7dXpmbnno2x1gRKC2tzkfSb5O5IYep3bYShgV6t9FSfdzjz0Y?authuser=0&fife=s16383", "Code": null }, "geometry": { "type": "Point", "coordinates": [ -4.3090771, 55.8187988, 0.0 ] } },
{ "type": "Feature", "properties": { "Name": "Busby Junction high flats", "description": null, "gx_media_links": "https://mymaps.usercontent.google.com/hostedimage/m/*/3AE5a_Gz7CYlpsl2v5TPM_jSsFtNdmi8WkLIQi7f1654bNY9e6ExITrvM_O9S_DYWAR6ds8Er8TBqKKgC72-Suux141C96WhC4H9AgZKuDBERb0bAb70fUEWPuLZ2BptVA4eXRl2alTWJIb7XwA3LFScR0T59I57rieR-j0BV5ifKiRSxk9GTlJGfpOBBtWc6chlvtT5GPG5GeY2dEXpFAQBtnVPuM2t4keJzN9ugIlFYfd94jbT-2zysWIhIJ98?authuser=0&fife=s16383 https://mymaps.usercontent.google.com/hostedimage/m/*/3AE5a_GwTGfMc9foFMMI0yJmskiscfWuXehvsJQFQNNGAyIYKbMPiD-DFMrTemhBNPmioOVJqOm1np1VsNvrF7C41y3uhOsaDW80jo3fvwH7zb-PhS7uz7JXohFKh9FVbXQrlWkkTIw9tj31uDvF9uzUs7ZDbLeGuLXClUjteMZji0KJ5fNHiey82wnleY5ZbXWo2unduNRoW05eiV1rLuVZJWXg_F971hZGLHFJtLuKVf9imTL8hUpJ2DiARpm0?authuser=0&fife=s16383", "Code": null }, "geometry": { "type": "Point", "coordinates": [ -4.3051289, 55.8207412, 0.0 ] } },
{ "type": "Feature", "properties": { "Name": "Busby Junction opposite high flats", "description": null, "gx_media_links": "https://mymaps.usercontent.google.com/hostedimage/m/*/3AE5a_GxrnpoDrZvKvgfaSZuDsdyeYMZtiGu6I-UcaYgZTrCtumUxn9-xgOFxwdfFzTP35btMS7qG-UVw4H5q7ZW3HUoiTa4IsDuoyXi1cRHx6mpOK-xucPNOWNhptpQitJpsCWTgXb55TYujG3bH50T0ioXYbgYTFNRek3CxojXppexXBtaarjZOYFasADA9Va1deQ9QLxIFNL5Uj1oHUcrJgMDOicw_V3wrOKBzNOaUnjpGDlPmIyZawfk3zow?authuser=0&fife=s16383", "Code": null }, "geometry": { "type": "Point", "coordinates": [ -4.3058638, 55.8210712, 0.0 ] } },
{ "type": "Feature", "properties": { "Name": "Kennishead Station", "description": null, "gx_media_links": "https://mymaps.usercontent.google.com/hostedimage/m/*/3AE5a_GzUoqcCrHrktaQk_j2ieJOwRg3u4BbeoKn88D7--ypxSsWIAHYHmSj7k2aWVGpNkrRYUWLaaad9niiq4hHipFm1US9L8Le0v-qBeSNV2ya19GOwmVVVmgQTlY3R-LJ5j8YR12njTixXE8XpionHWukAowjutVWjnPPvWYub9VSy-Ez_6tluhDkugoy9s4VRbuVfqJ3Zty85x2fEeSmaTQ_0WsKBkA2mcQXMFRc2GveEybuPE0aCZHue0BE?authuser=0&fife=s16383", "Code": null }, "geometry": { "type": "Point", "coordinates": [ -4.3246557, 55.8132257, 0.0 ] } },
{ "type": "Feature", "properties": { "Name": "Under M77", "description": null, "gx_media_links": "https://mymaps.usercontent.google.com/hostedimage/m/*/3AE5a_GxtBjHtzmmdMzteo6Jxj8F3Gn0_dNpQnTgcuWq45oSOCywq2psrQeBjPXRSaTnRtVcBx_GUqsH595QJcSPdqa0OIpVUECqN1fIATFTFZrI1-MZzeY11NDvd0jCf3gX2U5rwINDea_lpdLIgjJBr2TnYNcyiTQw3ioaS0uIF_aHYvyWTQRcxE9rgpHs_MYvSZgBQWpJItwgqlvZQotS3gOGaZ2_m4rXukTvFAIZDiCyMbmFo4E-ESuJm1Bk?authuser=0&fife=s16383", "Code": null }, "geometry": { "type": "Point", "coordinates": [ -4.3330773, 55.8118727, 0.0 ] } },
{ "type": "Feature", "properties": { "Name": "Priesthill & Darnley Station", "description": null, "gx_media_links": "https://mymaps.usercontent.google.com/hostedimage/m/*/3AE5a_GwIhdzCguIrCg031yGgqbfOQq8vCN_zlEyDab_VA6t5ESY8I4wPc8uAgykoN9cgsBH7hxQMaZPLs4TJ2ddfg5U-vQcdJxsdj_CqMcCp-QlUKQ4reBIo2TD2bt1gVGJGYntwAloKVBEB1oJZFoFLwBVOJy1tbcG2MnRT4YmVjJsOehyCgib1SPhKU5TbkYKwifRKLl61mM5HvX_PFdQxZDhFaFT_yI5q5mOLR8ZxsjbVRDV1afZz3qdiwB8?authuser=0&fife=s16383", "Code": null }, "geometry": { "type": "Point", "coordinates": [ -4.3425389, 55.8121403, 0.0 ] } },
{ "type": "Feature", "properties": { "Name": "Nitshill REB", "description": null, "gx_media_links": null, "Code": null }, "geometry": { "type": "Point", "coordinates": [ -4.3562015, 55.8121513, 0.0 ] } },
{ "type": "Feature", "properties": { "Name": "Nitshill ES", "description": null, "gx_media_links": null, "Code": null }, "geometry": { "type": "Point", "coordinates": [ -4.3557549, 55.8117824, 0.0 ] } },
{ "type": "Feature", "properties": { "Name": "Nitshill Station", "description": null, "gx_media_links": "https://mymaps.usercontent.google.com/hostedimage/m/*/3AE5a_Gzs6uzb8ocqRCwGMBIkS8vJithGx8ujz7FtZQX8NVMy3ezPxOxfyxTXUnChSV97Ot9iE82hOU3LREhwg8d_hotAOZoqwjww0iZJyJlDfdhXcoaUoCm4gt3YPOnlMnwWI1yt9bsxhy9HDHJc7yDnEQZdpJUzag3h_FGQIoW7nnGimCuZ-ndtyWZNNAZGV7AIy_3dBwfi3jJMiLkQIbjoKb1yza2RGc_t2lZSfBBNfUMaXAX-Bh9UZyjSvxA?authuser=0&fife=s16383", "Code": null }, "geometry": { "type": "Point", "coordinates": [ -4.3598938, 55.8124282, 0.0 ] } },
{ "type": "Feature", "properties": { "Name": "Cemetery", "description": null, "gx_media_links": "https://mymaps.usercontent.google.com/hostedimage/m/*/3AE5a_GzZb4RsxADT-xM5WP5JmbYfoF1udHe-sy-deZqFJammdNr2jBzPJFqnTnjNxvbDfikU7_rVwFefKSPhzyrbtJCCHHJgL5o181sAfgqDEO90epT1CSFrzb0o3_p5wdOiakRCuMDKxNcGHjbq1cHNQAMSY320ly8Hooz3jnjN1wqkh_09AODb8r1O33bZTIWmDKdz9JReRzYzBcelPC3gUT_XeufKwsjOKXIeNTbhCR1bK8LQldEoSR9oUA0?authuser=0&fife=s16383", "Code": null }, "geometry": { "type": "Point", "coordinates": [ -4.3776233, 55.812267, 0.0 ] } },
{ "type": "Feature", "properties": { "Name": "Former Shanks site", "description": null, "gx_media_links": "https://mymaps.usercontent.google.com/hostedimage/m/*/3AE5a_GxTMFnrHP_Xj0MopRkR-6066Vekd8RNco8eqjzBT5XDWGJDE0VG8Trru1plAv3POGzBmYiWY_HVaKq2RGjzFm5bT2wotp1sCM-R-A876mILUxRGQBYT02n84mhf59RjimUrCIlcUGnbClzq8Mq0CX5sACOvqypG3BWHeWmPl2b4OGmVijIs6ieptJxctw5isqxaNUSwn97o-AC6cR8G-wL0rfcaDdbuR3ckTms-9QCQrYKs280GF1O2dhE?authuser=0&fife=s16383", "Code": null }, "geometry": { "type": "Point", "coordinates": [ -4.3895676, 55.8083115, 0.0 ] } },
{ "type": "Feature", "properties": { "Name": "Pollokshaws West Station", "description": null, "gx_media_links": "https://mymaps.usercontent.google.com/hostedimage/m/*/3AE5a_Gy2VuqNWeC2xaJMMpp3TSQ-ObY3MpXDiAOiLKHeGPrknRg-D2NTv4A-Mdja0V8bsJAcn3UtrDPtovFNkrpm0CIFI2J49te_aYu4l_6x5YKHuwXz0m1zYYO-2FEiZCoBlzCeFfEjWgXv-tUwsvoB7G5oMAaHHKcRDOZPT2posY30bciVmzNp1X3FtJJzH8hr6yh4bTvdUy-HwadMJBd27rthXfqrbfkuD0BmjvuF_ceevT4OYMjDxyG-eEk?authuser=0&fife=s16383", "Code": null }, "geometry": { "type": "Point", "coordinates": [ -4.3011638, 55.8238144, 0.0 ] } },
{ "type": "Feature", "properties": { "Name": "Magnet Haggs Gate", "description": null, "gx_media_links": "https://mymaps.usercontent.google.com/hostedimage/m/*/3AE5a_GyonM5Ofmwvhk5s7xOYGoDWpl-en-_f_JjhOB0y3VE_vsqb91lL39Muojf-RoRIoIa_ZOJuF5FREo-XahTPn5IsH0SitV3UHhEOGbtLbVLkOynLgpZRfWB0U40-WnNtn1JdlcyVHaacA6Id3OrGi0RIRTVgwcZ-PFMP8EKh4I8L6ziK-icbl5s1GAoVD03aP7qhmBou_HeElEmn-soDSk9b2dPSjW2An3WM2DleEd11MBLDGSppHpG_MlU?authuser=0&fife=s16383", "Code": null }, "geometry": { "type": "Point", "coordinates": [ -4.2962929, 55.8290815, 0.0 ] } },
{ "type": "Feature", "properties": { "Name": "Heries Road", "description": null, "gx_media_links": "https://mymaps.usercontent.google.com/hostedimage/m/*/3AE5a_Gz3mvCfBQj_EQHb3wPkOdCIhV_1oiq6XtfeC1vjBSNx0ZeGJZeaEMIei7ZCjOGhrZLK3MLN5776Vm-Ffskp0e0mhmdL-c2i1W1cGMg6OHrPHbeZ0WvngjiGVinh9ZsmSqFAqsNi4Xtp9vRUyFtKGYT2PlxX-cfD2oWpldZ9c6SaJ0mtQ0bZDiPGZWzA4lTe6GTY6bhmcmSfUuTgSRMb8GAhHbM9OZEe4vkXGirzi2lfEfgSF60jxao0ukI?authuser=0&fife=s16383", "Code": null }, "geometry": { "type": "Point", "coordinates": [ -4.2932099, 55.8306635, 0.0 ] } },
{ "type": "Feature", "properties": { "Name": "Heries Road (other place to park)", "description": null, "gx_media_links": "https://mymaps.usercontent.google.com/hostedimage/m/*/3AE5a_GxjYrjlt2xe7_mci2X9QgCr96koKIFPfH5qLd50moIxESV2BntsX86bWW_iIU0VEZ-WVmkKwUTXL-YETgWMBLQvCInBZ-v2j--QzzFUlnWt2PnYbJe2aj3uIIwEPKDk7_w99fVw2ZDgUr-dF-rp36Q7QsKN1Ne_8OPNW4jg-Bmkhg0GCjCyYMKAcq7o97lomAy6jWcI-24ZNM4loLWCfzt7bWk2gENtijfb50KpOC2YC5dKzPa9uW3nxhw?authuser=0&fife=s16383", "Code": null }, "geometry": { "type": "Point", "coordinates": [ -4.2925339, 55.8303721, 0.0 ] } },
{ "type": "Feature", "properties": { "Name": "Crossmyloof Station", "description": null, "gx_media_links": "https://mymaps.usercontent.google.com/hostedimage/m/*/3AE5a_GxER9UsERwfXe_fooj8f3JmwlssS6lvDICV9E1TupTdVRDTVo0KVe5YLjyLy_lXIlXb9JccdLLeA8tjPtlLmLLhw_RsIo61CvdZbT8PQKBlVpzsjAe-v4YqQHiWSbXKLZQW1A0VNpfPzoHZjQMKAtAn-fWfbXEQQ8A3bUmjITWe-XLfJqT9LwuJKKJK7L1B5yz1qMthVbnS8j4OS3KIh3rUKWIO-3U9sc-ulD4HUSSgmGZqcLD-ARx6xAw?authuser=0&fife=s16383", "Code": null }, "geometry": { "type": "Point", "coordinates": [ -4.2839756, 55.8341498, 0.0 ] } },
{ "type": "Feature", "properties": { "Name": "Darnley Road opp Mariscat", "description": null, "gx_media_links": "https://mymaps.usercontent.google.com/hostedimage/m/*/3AE5a_Gw8F5Hlxy7Yn6H8eSVu5EUA4Oj5nM6OZItclM8aojcSSs8du9WYhVJn3PW7U6TYt1NBwZ2BUvcuiuhtA_pg4nCj0FaYBD2Nt1lhSUwHh20SgyQRiyISXoxVXRdALtFDVhwnqhAAB2K6xO0xr03u1kLVhjnkfXCAK9XsPEUYZwGfD2eAPtWA3UjZMT6tC3vBjohP-Xj5Uubd8dUTqIYKF0sN4DDm2hMv7zjQuJaxQB3B5-1IE1nZcwwXqhE?authuser=0&fife=s16383", "Code": null }, "geometry": { "type": "Point", "coordinates": [ -4.2785251, 55.8360553, 0.0 ] } },
{ "type": "Feature", "properties": { "Name": "Darnley Road 684pts", "description": null, "gx_media_links": "https://mymaps.usercontent.google.com/hostedimage/m/*/3AE5a_Gx2XQJHWt_IxLAvkHAYYjeLRpZ5KaweydGjjUCMP-S-yZiO-5b_4QiV2VZTOLG4XY7774jYuN0NK0jay0QuYZJYW0iU0oxB51fHdedeS6XrSpr5DHbl7QtqooxYjn4x176z-FD9QHoiUust-o1Tox3N2ycYWDG3kx-9EQR3VIqbXe0ZXTcg9BCdpd06kNex4rFxXxpqQxKj4eXjEm9BYTY1QssEh07oqv3bpREn6X2BzITcb7-9r2S_RwM?authuser=0&fife=s16383", "Code": null }, "geometry": { "type": "Point", "coordinates": [ -4.2737171, 55.8378292, 0.0 ] } },
{ "type": "Feature", "properties": { "Name": "Birdshit points roundabout", "description": null, "gx_media_links": "https://mymaps.usercontent.google.com/hostedimage/m/*/3AE5a_GwOSQQQibVuJl9hLIfrq9Nlugkha5vcvI8U2pGTrfyF72zko56OZDLHeOXEviHB_WDddg94rMu0AtfadrgVCFv2V7WjoA7p_T7bBLLfffX5QGdRixVGM7cw8zclJ74yc6UYzMCm6OL5Z9y2NwGtkwaV2n3vsYNTMkn5z3RT7uHujnLwF2X_jKKscbiatVB1cZK7zaN_urDJwpalLO4hW8WCUf24O046Espr9wov0V2qhwtRu5kMRxCOgqE?authuser=0&fife=s16383", "Code": null }, "geometry": { "type": "Point", "coordinates": [ -4.2722807, 55.8378902, 0.0 ] } },
{ "type": "Feature", "properties": { "Name": "Muirhouse Slope", "description": null, "gx_media_links": "https://mymaps.usercontent.google.com/hostedimage/m/*/3AE5a_GyvDt8ubQfqyFz4oCanc6yoDambTWkylYi8pLJznqarpft-gifRvwsX9ZlkVdPMRL2f_ZiRCHPkkrDNWDzsXbYg2W4x94S9p4wp4R4wVVPs-mrADMJZHduLmbngTFHTHMHk32CE-_XX6BBAm9xhVDR4jtio1z9Q0h586lyHtgXb071gXIgYzyx_UHmE35eFuLijJp73Sjyq1q8Q5JGhY8_4dDDBd4_hx0__PO7WToN2Ho7SUMul0bhlu_4?authuser=0&fife=s16383", "Code": null }, "geometry": { "type": "Point", "coordinates": [ -4.2695638, 55.841135, 0.0 ] } },
{ "type": "Feature", "properties": { "Name": "Pollokshields East Station ", "description": null, "gx_media_links": "https://mymaps.usercontent.google.com/hostedimage/m/*/3AE5a_Gy5ypC-J5maXoHcgNGWDsjZX56ZV4ed8N4FgHssGo3DWmqUeMb76rQi5ZxjsWyLIacZDNrvlQETK97QXwU8l8ZFGW2qbtFIHb46NqQL5XJYWvVMtNqLdythwZioGpPX1ctxYcxu-RAYub7MAoWrg7Wb1-LkZyqv8fYJA30aHzmFPYiwZS_JmMAqJO-hBQ-TzAXN66SLpKmUmeVv9hYursgT3mHnzJxQnwgXqNSnC5iqtxx3u5opw9CgBTg?authuser=0&fife=s16383", "Code": null }, "geometry": { "type": "Point", "coordinates": [ -4.2683917, 55.8413338, 0.0 ] } },
{ "type": "Feature", "properties": { "Name": "Pollokshields West Station ", "description": null, "gx_media_links": null, "Code": null }, "geometry": { "type": "Point", "coordinates": [ -4.2762591, 55.8379423, 0.0 ] } },
{ "type": "Feature", "properties": { "Name": "Maxwell Park Station", "description": null, "gx_media_links": null, "Code": null }, "geometry": { "type": "Point", "coordinates": [ -4.2886761, 55.8374155, 0.0 ] } },
{ "type": "Feature", "properties": { "Name": "Shawmoss Road", "description": null, "gx_media_links": null, "Code": null }, "geometry": { "type": "Point", "coordinates": [ -4.2936412, 55.8317751, 0.0 ] } },
{ "type": "Feature", "properties": { "Name": "Shawlands Station", "description": null, "gx_media_links": null, "Code": null }, "geometry": { "type": "Point", "coordinates": [ -4.2930478, 55.8299491, 0.0 ] } },
{ "type": "Feature", "properties": { "Name": "Post Office", "description": null, "gx_media_links": "https://mymaps.usercontent.google.com/hostedimage/m/*/3AE5a_Gx8PC2T4JBAztZbSX06IdX1Pgq9SIAtQCJ8w4pLpydzD6c5mLrJ0hBOwi6hBZUUYN5Eua9u7lyMxrRhL3EqXWxKfMsWXVL2xPMPXvik0x78zKzY9yHPFxhKFo8mn-ugSsLA7M9leG5IBO-fWSaHMwvaX1jPecXHs5h7M_Qtc9VLvXSK6mOc9FmxN-U-o0beTkFte91lklchevE3l-mqpv8Ybtwk3ZK-HS72RBHGWemmdYOYF-ueFQMKvwc?authuser=0&fife=s16383", "Code": null }, "geometry": { "type": "Point", "coordinates": [ -4.2693554, 55.8475661, 0.0 ] } },
{ "type": "Feature", "properties": { "Name": "Terminus", "description": null, "gx_media_links": "https://mymaps.usercontent.google.com/hostedimage/m/*/3AE5a_GwsN66QaBGjBC1H2QfBW6hHFUUoYn7tCsYuOVPvEBonVWfMe9B06fGhWgXnkUF9mKma7OECKOixC-rhLjMomOzKyijc855bdUS0fsX-uAClEG2gteNtekiSoVltzx4n-7p9usx2dHJSPREr5Z3-TXF_XQANHLGuDWSAFkUsi0Czo2AefBREd0WgEAkGXL1X3rcA7DXkoT2o0ttLMZrKwaKRVFr7WWvbLH4J0yI4m3tJyzZu9PbCniT1Onw?authuser=0&fife=s16383", "Code": null }, "geometry": { "type": "Point", "coordinates": [ -4.267989, 55.8472695, 0.0 ] } },
{ "type": "Feature", "properties": { "Name": "Shields Road Bridge", "description": null, "gx_media_links": "https://mymaps.usercontent.google.com/hostedimage/m/*/3AE5a_GzoBI_EO95i-45ycuqC9OqgL-mjM-14w65KbrWzAj21w4iIBY2CBgIsLGTRTcOW7U-bOwY1mk8odD2msdHueZyK15AIexcxULoKpmCogYiAc9rSdisz9lNP1tXfV3U7DnwIfQHKS5F75ySYKVPJfHNV0MtMoDM1uY-MdcNfCQXBapsBCs7AoEW3skNYy4IYSauHp5HVkEdVfU1D7z6lZGJiNGK_9Fcpmy6wdhErbA96iTskjJS83Rp5Mpw?authuser=0&fife=s16383", "Code": null }, "geometry": { "type": "Point", "coordinates": [ -4.2748172, 55.8478789, 0.0 ] } },
{ "type": "Feature", "properties": { "Name": "Offices (CLY)", "description": null, "gx_media_links": null, "Code": null }, "geometry": { "type": "Point", "coordinates": [ -4.276292, 55.8479563, 0.0 ] } },
{ "type": "Feature", "properties": { "Name": "Marlow Terrace", "description": null, "gx_media_links": null, "Code": null }, "geometry": { "type": "Point", "coordinates": [ -4.2787192, 55.8477154, 0.0 ] } },
{ "type": "Feature", "properties": { "Name": "Trespass ", "description": null, "gx_media_links": null, "Code": null }, "geometry": { "type": "Point", "coordinates": [ -4.2831186, 55.8490387, 0.0 ] } },
{ "type": "Feature", "properties": { "Name": "Shields depot", "description": "Code: 1402", "gx_media_links": null, "Code": null }, "geometry": { "type": "Point", "coordinates": [ -4.2832204, 55.8467013, 0.0 ] } },
{ "type": "Feature", "properties": { "Name": "Academy Park", "description": null, "gx_media_links": "https://mymaps.usercontent.google.com/hostedimage/m/*/3AE5a_GwExD2HqDdPcUqCdiDAjKA3vosmeyT1vd9chFv7TDQ1riPk7hLmaY05_ZDtwDQ0qNIUF7FKqjqVspBu9ajFpQ2jAFB5qSwEWWWgnRCWq0M33G-yPQsryGxoDXpTI2GxV6eK_448Hdkjs1pnf_v1GM5YRZFe5zkzssp0Wd-fUNvzGKfvSTT8w9g2gTj3FlZC5LnReQq-8DYdXH3myZyV492S7r77u0HGOnn4fooVWDD2XT3Vjmf6kVsYUXQ?authuser=0&fife=s16383", "Code": null }, "geometry": { "type": "Point", "coordinates": [ -4.2973287, 55.8483193, 0.0 ] } },
{ "type": "Feature", "properties": { "Name": "Richie’s slope", "description": null, "gx_media_links": "https://mymaps.usercontent.google.com/hostedimage/m/*/3AE5a_Gz2ijycDctV-EitLgd9DhPh93kcVaazFGaZfHq-otXFQ_Y-2-9Irh0C57SRnY0Wbrx6VjD4yNlv94MuUw1xEl6SfkrIvfzBGJFwdu_gQuPi3sj8YkUVqGDATJNMwBBu7gvKF0zHnxqMI4pJ-5AUcn06poL6Sl8x59-m1LqL0ygxgq5AnEI34-_7jmpQJLOar5bpSNjyrREGTUGXWczECHhjF8JZalsymXe7N2JF8A4wkhcAxgIp5PFJsjU?authuser=0&fife=s16383", "Code": null }, "geometry": { "type": "Point", "coordinates": [ -4.2969961, 55.8488283, 0.0 ] } },
{ "type": "Feature", "properties": { "Name": "Gate on M8", "description": null, "gx_media_links": "https://mymaps.usercontent.google.com/hostedimage/m/*/3AE5a_Gw97ciAYVsKTb9QS6DvGlvRnEYRTeWjNs5e7R6WkG5Tw3E-OXnjaT8UcWhyQukEGQ0HR9KlLfE8M-HPvcmYT9nO2eC6tlWZw7NHGhL4t1-0_I-pW8-onKrUgn5-B4osENmq9Q-Oc6Q9Ne0n7VEIJhHHCQ1ppJyMp3AuIWqxv6xc7FdQU_TbznrFJ5MJE_ThXrm_ZVGjLQL6XglukFeWXf_DYOhgbGz0wAb79A6lbFLDe7SQqm2_hzLlAxE?authuser=0&fife=s16383", "Code": null }, "geometry": { "type": "Point", "coordinates": [ -4.3066331, 55.8491976, 0.0 ] } },
{ "type": "Feature", "properties": { "Name": "Park here for M8", "description": null, "gx_media_links": "https://mymaps.usercontent.google.com/hostedimage/m/*/3AE5a_GzJF1w71dIEGBGfrPhGx_3FBx10gu_HCzQeFX-YG2xNOXwimEibR9DMNAoYDMTAVo8e0Bvas7bFLkEUR1-GLMrme1QEs1trJ_ML1OWPPmQJ2jplTFy7Fpebx-Rk7HvyA9H0U8_Ghkk4KTjHM8S3YzMQnzim7y1Hu4MxeG0iLsJ1zYQsp7simv3ZgXIOvDRk2DjXOKGdS_1Qf8uxroxuK6i-QM5_ZTN5jqPlYgr1eNlHmDhgfZUsRcqtxo0?authuser=0&fife=s16383", "Code": null }, "geometry": { "type": "Point", "coordinates": [ -4.3052285, 55.8496447, 0.0 ] } },
{ "type": "Feature", "properties": { "Name": "Pit Stop garage", "description": "Ladder", "gx_media_links": null, "Code": null }, "geometry": { "type": "Point", "coordinates": [ -4.3096974, 55.8498019, 0.0 ] } },
{ "type": "Feature", "properties": { "Name": "Ibrox", "description": null, "gx_media_links": null, "Code": null }, "geometry": { "type": "Point", "coordinates": [ -4.3134908, 55.85028, 0.0 ] } },
{ "type": "Feature", "properties": { "Name": "McDonalds", "description": null, "gx_media_links": null, "Code": null }, "geometry": { "type": "Point", "coordinates": [ -4.3194313, 55.8509293, 0.0 ] } },
{ "type": "Feature", "properties": { "Name": "Industrial estate big puddle ", "description": null, "gx_media_links": null, "Code": null }, "geometry": { "type": "Point", "coordinates": [ -4.3306087, 55.8514169, 0.0 ] } },
{ "type": "Feature", "properties": { "Name": "Cardonald Station ", "description": null, "gx_media_links": null, "Code": null }, "geometry": { "type": "Point", "coordinates": [ -4.340418, 55.8525688, 0.0 ] } },
{ "type": "Feature", "properties": { "Name": "Cardonald flats", "description": null, "gx_media_links": null, "Code": null }, "geometry": { "type": "Point", "coordinates": [ -4.3453955, 55.8531194, 0.0 ] } },
{ "type": "Feature", "properties": { "Name": "Cardonald offices", "description": null, "gx_media_links": null, "Code": null }, "geometry": { "type": "Point", "coordinates": [ -4.3470623, 55.8537569, 0.0 ] } },
{ "type": "Feature", "properties": { "Name": "Deanside bus stop", "description": null, "gx_media_links": null, "Code": null }, "geometry": { "type": "Point", "coordinates": [ -4.3522531, 55.8573467, 0.0 ] } },
{ "type": "Feature", "properties": { "Name": "Clyde Power", "description": null, "gx_media_links": null, "Code": null }, "geometry": { "type": "Point", "coordinates": [ -4.3531889, 55.8602888, 0.0 ] } },
{ "type": "Feature", "properties": { "Name": "No fence", "description": "Unofficial ", "gx_media_links": null, "Code": null }, "geometry": { "type": "Point", "coordinates": [ -4.3647788, 55.867684, 0.0 ] } },
{ "type": "Feature", "properties": { "Name": "Hillington East Station ", "description": null, "gx_media_links": null, "Code": null }, "geometry": { "type": "Point", "coordinates": [ -4.3550191, 55.8543893, 0.0 ] } },
{ "type": "Feature", "properties": { "Name": "Hillington West Station ", "description": null, "gx_media_links": null, "Code": null }, "geometry": { "type": "Point", "coordinates": [ -4.3720057, 55.856101, 0.0 ] } },
{ "type": "Feature", "properties": { "Name": "Dumbreck Station", "description": null, "gx_media_links": null, "Code": null }, "geometry": { "type": "Point", "coordinates": [ -4.3013098, 55.8442539, 0.0 ] } },
{ "type": "Feature", "properties": { "Name": "Motorway gate", "description": null, "gx_media_links": null, "Code": null }, "geometry": { "type": "Point", "coordinates": [ -4.3135314, 55.8397032, 0.0 ] } },
{ "type": "Feature", "properties": { "Name": "Corkerhill depot", "description": null, "gx_media_links": null, "Code": null }, "geometry": { "type": "Point", "coordinates": [ -4.3271718, 55.8355931, 0.0 ] } },
{ "type": "Feature", "properties": { "Name": "Corkerhill Station", "description": null, "gx_media_links": null, "Code": null }, "geometry": { "type": "Point", "coordinates": [ -4.3347557, 55.8380913, 0.0 ] } },
{ "type": "Feature", "properties": { "Name": "Mosspark Station", "description": null, "gx_media_links": null, "Code": null }, "geometry": { "type": "Point", "coordinates": [ -4.3478199, 55.8410871, 0.0 ] } },
{ "type": "Feature", "properties": { "Name": "Crookston Station ", "description": null, "gx_media_links": null, "Code": null }, "geometry": { "type": "Point", "coordinates": [ -4.3645804, 55.8419, 0.0 ] } },
{ "type": "Feature", "properties": { "Name": "Hawkhead Station ", "description": null, "gx_media_links": null, "Code": null }, "geometry": { "type": "Point", "coordinates": [ -4.3989723, 55.8424016, 0.0 ] } },
{ "type": "Feature", "properties": { "Name": "Linside Avenue", "description": null, "gx_media_links": null, "Code": null }, "geometry": { "type": "Point", "coordinates": [ -4.4035785, 55.8418175, 0.0 ] } },
{ "type": "Feature", "properties": { "Name": "Paisley Canal Station", "description": null, "gx_media_links": null, "Code": null }, "geometry": { "type": "Point", "coordinates": [ -4.4235364, 55.8401438, 0.0 ] } },
{ "type": "Feature", "properties": { "Name": "Kinnell Crescent", "description": null, "gx_media_links": null, "Code": null }, "geometry": { "type": "Point", "coordinates": [ -4.3448868, 55.8403099, 0.0 ] } },
{ "type": "Feature", "properties": { "Name": "Strathclyde Street", "description": null, "gx_media_links": null, "Code": null }, "geometry": { "type": "Point", "coordinates": [ -4.2169429, 55.8384472, 0.0 ] } },
{ "type": "Feature", "properties": { "Name": "Dalmarnock Station", "description": null, "gx_media_links": null, "Code": null }, "geometry": { "type": "Point", "coordinates": [ -4.2173994, 55.8423316, 0.0 ] } },
{ "type": "Feature", "properties": { "Name": "Queens Park Skatepark", "description": null, "gx_media_links": null, "Code": null }, "geometry": { "type": "Point", "coordinates": [ -4.2590981, 55.8290659, 0.0 ] } },
{ "type": "Feature", "properties": { "Name": "Shunter's Bothy", "description": null, "gx_media_links": null, "Code": null }, "geometry": { "type": "Polygon", "coordinates": [ [ [ -4.3219375, 55.8368372, 0.0 ], [ -4.3218959, 55.8368082, 0.0 ], [ -4.321802, 55.8368519, 0.0 ], [ -4.3218436, 55.8368802, 0.0 ], [ -4.3219375, 55.8368372, 0.0 ] ] ] } },
{ "type": "Feature", "properties": { "Name": "Carmyle Station", "description": null, "gx_media_links": null, "Code": null }, "geometry": { "type": "Point", "coordinates": [ -4.1592832, 55.8342181, 0.0 ] } },
{ "type": "Feature", "properties": { "Name": "Cathcart Road", "description": null, "gx_media_links": null, "Code": null }, "geometry": { "type": "Point", "coordinates": [ -4.2555234, 55.8310249, 0.0 ] } },
{ "type": "Feature", "properties": { "Name": "Academy Park (Corkerhills)", "description": null, "gx_media_links": "https://mymaps.usercontent.google.com/hostedimage/m/*/3AE5a_GynU2hR9K6ZzkBPjpgyLGd_tOffBUUkguzhReXIfMT0lvIB5BaHLR8tXWUAcfZNC6EOSYFaTO-GzsIlw6ndvjcgjRYWrBmQg0-Tf2l53ShCSeJT3mfr3QqSbIdaBU1BMiiZhE00LKD4HNjYsMjmkcvaCHq9TC7HPwvqle4ZmSaTWwPTuXG5fqU1LC64Fg0uFBDT0dXefxsBLweMiJ_8jmuusNOJU-3AzPiSJEi4Gw9nQ44WScDm2Fgxmcc?authuser=0&fife=s16383", "Code": null }, "geometry": { "type": "Point", "coordinates": [ -4.2964157, 55.8471045, 0.0 ] } },
{ "type": "Feature", "properties": { "Name": "Carmyles Stairs", "description": null, "gx_media_links": null, "Code": null }, "geometry": { "type": "Point", "coordinates": [ -4.1941402, 55.8284989, 0.0 ] } },
{ "type": "Feature", "properties": { "Name": "Bridgegate ", "description": null, "gx_media_links": null, "Code": null }, "geometry": { "type": "Point", "coordinates": [ -4.2485101, 55.8538547, 0.0 ] } },
{ "type": "Feature", "properties": { "Name": "Tannahill Road", "description": null, "gx_media_links": null, "Code": null }, "geometry": { "type": "Point", "coordinates": [ -4.2754209, 55.8205144, 0.0 ] } },
{ "type": "Feature", "properties": { "Name": "Prospect Road", "description": null, "gx_media_links": null, "Code": null }, "geometry": { "type": "Point", "coordinates": [ -4.291279, 55.8272877, 0.0 ] } },
{ "type": "Feature", "properties": { "Name": "Kirktonholme Road", "description": null, "gx_media_links": "https://mymaps.usercontent.google.com/hostedimage/m/*/3AE5a_Gy-KdvqA7l0W4ABGNArbqmif4GzM1kTCc80E9m2cMAW65ssJU83fdjYE-S177EVj9g1cC2KTBAnO9O4iFidgVweS2oSJng7Mt0il_kET8_APKchEzFz584WaoXqnZ8FjVP6pHWfr7aNa_JqkoW7sz-bDUTzFaJ-7DDO6S_fhKQaoz9zjBcrjYT1r0-4zicZyn2rKzSjWFaksu8BkQcwK7CWLlJiJ-_yq7VTu2OnIa65EdIbuZ8_3mAB298?authuser=0&fife=s16383", "Code": null }, "geometry": { "type": "Point", "coordinates": [ -4.205, 55.7652366, 0.0 ] } },
{ "type": "Feature", "properties": { "Name": "Queensway", "description": null, "gx_media_links": null, "Code": null }, "geometry": { "type": "Point", "coordinates": [ -4.2081357, 55.7648979, 0.0 ] } },
{ "type": "Feature", "properties": { "Name": "Tennant Avenue", "description": null, "gx_media_links": "https://mymaps.usercontent.google.com/hostedimage/m/*/3AE5a_GxJ2A8k7SHnmWxDbdk-p75y7cP4ktURITjNUV7llKNeDIy39JsCag1M-PbRIRXkJlyMlK7__kny4QcB0rLEO5cYPCjYKj-FVQdw5WE37vM-T1q564JtCxgP9frNBz0--Aqx2v82XERLMNZgmTKMC8TZTMnJIDB1VDYQUyvNB5svtW7qRk4r5aPUP4LUqLTn12AidyTcv5JKxJNN_CR113W9IO7MS2ku4M_Mk4LnkrGg0cAIzbtMqly0bFs?authuser=0&fife=s16383", "Code": null }, "geometry": { "type": "Point", "coordinates": [ -4.2141941, 55.7633983, 0.0 ] } },
{ "type": "Feature", "properties": { "Name": "Clydebridge Steelworks", "description": null, "gx_media_links": null, "Code": null }, "geometry": { "type": "Point", "coordinates": [ -4.1844044, 55.8300861, 0.0 ] } },
{ "type": "Feature", "properties": { "Name": "Crossmyloof RRAP", "description": null, "gx_media_links": "https://mymaps.usercontent.google.com/hostedimage/m/*/3AE5a_Gzi1KNg8VL3xxz79y72vxlKHJmt2ysLc2KLkVCjPV7wxBdFVJXyaTmNfgeEL3MJMbnGPOb_4UbX72hJzPMQGP0fHw6CXv-i0pgOb37D8OEzRdFR8gsVGCEG_i1YChkfXAcUrGFWg6dQN-psMGmtUMwn7onb5bZ3paSb5LKAYYMrmH5brnkPeDhRok5DePqGdvIvGYDna03DNAV-4WLzSDj3b65ZXHNyrICyI13h6TskSZF5kLGXX439lEw?authuser=0&fife=s16383", "Code": null }, "geometry": { "type": "Point", "coordinates": [ -4.2823896, 55.8347415, 0.0 ] } },
{ "type": "Feature", "properties": { "Name": "Halfway Yard", "description": null, "gx_media_links": null, "Code": null }, "geometry": { "type": "Point", "coordinates": [ -4.1536216, 55.8151315, 0.0 ] } },
{ "type": "Feature", "properties": { "Name": "Kirkton Gate", "description": null, "gx_media_links": "https://mymaps.usercontent.google.com/hostedimage/m/*/3AE5a_GzyOdEQwihEDp5oyB3qfws_2vap78-6zbonDeq7qe1CQuXbm9qtxVITfpySUQc_auP2xeHCcGmyt9DOFOKr3Bj1V4t73xHCIupzRg7vumHKsrqcz8wcyiNCmSfePF1hCM95H0JNe0Nhw9Vdi0JWd65pMjKiGcvJGj9LotAkTUsIB60aUlVs6p2er4lqSzIaHsLD3M9NIdCrTeLCdm-_gSgyF65cj5CSKZ7J5QgW6nDtHj_FABf7bRoLCfQ?authuser=0&fife=s16383", "Code": null }, "geometry": { "type": "Point", "coordinates": [ -4.1819011, 55.7659557, 0.0 ] } },
{ "type": "Feature", "properties": { "Name": "Kilmarnock Road", "description": null, "gx_media_links": "https://mymaps.usercontent.google.com/hostedimage/m/*/3AE5a_GxK_WMFuuAaaleS_NtJjXAd51hYX2otBEX6C0SFtdvSPRCS6pnj-KFyOaMvbiCAraXd0Zu6S_7lQk5eJvisNcPj1qENLqTNh-ls5KCsF-WQm7QzIVL0wZeQmTrGthpf2jkSR11C99JhlS4g5w-GQSEPuowklmwBDglbUF-Hm0ob1zjmhTXhW1Ukb57pkK8WBR1TZWQl4A866oUnqe7KHRwf7YRjGe-mv5tUCaRONAchaqw07FBJAEEZqts?authuser=0&fife=s16383", "Code": null }, "geometry": { "type": "Point", "coordinates": [ -4.286156, 55.8241472, 0.0 ] } },
{ "type": "Feature", "properties": { "Name": "Walking route", "description": null, "gx_media_links": null, "Code": null }, "geometry": { "type": "LineString", "coordinates": [ [ -4.3052285, 55.8496447, 0.0 ], [ -4.3053269, 55.8496397, 0.0 ], [ -4.305402, 55.8493898, 0.0 ], [ -4.3056889, 55.8491775, 0.0 ], [ -4.3059411, 55.8491654, 0.0 ], [ -4.3066063, 55.8491594, 0.0 ], [ -4.3066331, 55.8491976, 0.0 ] ] } },
{ "type": "Feature", "properties": { "Name": "Path", "description": null, "gx_media_links": null, "Code": null }, "geometry": { "type": "LineString", "coordinates": [ [ -4.2702895, 55.8393452, 0.0 ], [ -4.2698952, 55.8392714, 0.0 ] ] } },
{ "type": "Feature", "properties": { "Name": "House of Sher", "description": null, "gx_media_links": null, "Code": null }, "geometry": { "type": "Point", "coordinates": [ -4.2626007, 55.8456675, 0.0 ] } },
{ "type": "Feature", "properties": { "Name": "Salkeld Street", "description": "Main gate: 0534 Pedestrian gate: 4720", "gx_media_links": null, "Code": null }, "geometry": { "type": "Point", "coordinates": [ -4.2609174, 55.8495248, 0.0 ] } },
{ "type": "Feature", "properties": { "Name": "Gate for Clydebridge Steelworks", "description": null, "gx_media_links": null, "Code": 19904 }, "geometry": { "type": "Point", "coordinates": [ -4.1935578, 55.8294222, 0.0 ] } },
{ "type": "Feature", "properties": { "Name": "New gate", "description": null, "gx_media_links": "https://mymaps.usercontent.google.com/hostedimage/m/*/3AE5a_GwwvBoxAAImBfnLsupYJerH6SJwIWmxsMeiVsBizOwaHzNdotcX1qApArrD1QfAQkl_ZtoaqyPQA7d0EIbN5zaztbSayYTJisnbo7kYeOvpiQg0UxY2xGEknnftiSavoDof7tk_hRNqEb-n01DUj43JsmwD9BPXm_7v2ZyifWFbRKv4mUtKIPjkdGHn2vYZjhtQLWc7sbylyX50h7FwMToXya3tgjA9WlNmahTOLzaRUCCFvD17OcTI6-c?authuser=0&fife=s16383", "Code": null }, "geometry": { "type": "Point", "coordinates": [ -4.2767274, 55.7902235, 0.0 ] } },
{ "type": "Feature", "properties": { "Name": "New path", "description": null, "gx_media_links": null, "Code": null }, "geometry": { "type": "LineString", "coordinates": [ [ -4.2762592, 55.7899176, 0.0 ], [ -4.2767247, 55.7902416, 0.0 ], [ -4.2769244, 55.7904002, 0.0 ] ] } },
{ "type": "Feature", "properties": { "Name": "Muirhouse Relay Room", "description": null, "gx_media_links": "https://mymaps.usercontent.google.com/hostedimage/m/*/3AE5a_GxdS_pnoKdI7SrQkFqoSEz9KDZXH1GghTOxtwsYQ357Oxyu8YCPRMhfyVqSG7xM6BboZMqL0UvZ7V_64NZByfxQ34cwPXEwSMbnARFb3u39LL1mSpSCmlbB2mZu1TCZ7peWL8JJREHBvZWUxGw3c-acYQ-TOBYvlzJKyKbnXENJM95x_E2m5meD2Ost3X1Y-RB46WO_qSfH-nRST_otyybD8S3hdJrgzFmmV7gbtbuEH4V6huK3mUTvr7w?authuser=0&fife=s16383", "Code": null }, "geometry": { "type": "Point", "coordinates": [ -4.2700782, 55.8403722, 0.0 ] } },
{ "type": "Feature", "properties": { "Name": "Route to access from gate", "description": null, "gx_media_links": null, "Code": null }, "geometry": { "type": "LineString", "coordinates": [ [ -4.3895676, 55.8083115, 0.0 ], [ -4.3897155, 55.8083019, 0.0 ], [ -4.3904535, 55.8077979, 0.0 ], [ -4.3907539, 55.8077135, 0.0 ], [ -4.3910972, 55.8076954, 0.0 ], [ -4.3912474, 55.8077979, 0.0 ], [ -4.3919233, 55.8100408, 0.0 ], [ -4.3919233, 55.8102819, 0.0 ], [ -4.3918053, 55.8104809, 0.0 ], [ -4.3910758, 55.8111019, 0.0 ], [ -4.3907432, 55.8116806, 0.0 ] ] } },
{ "type": "Feature", "properties": { "Name": "Hairmyres New", "description": null, "gx_media_links": "https://mymaps.usercontent.google.com/hostedimage/m/*/3AE5a_Gxe5FfFZJHKnT0IDMhWlVgC9wLNJHDGxiW5ZmxIwicTn2fmxs5UCYu35h6H7PpCPwE86HpebBA6vAX13dnt-T2DTGtpGICTgMwoOtLZ1Im0SK1pHAky78RxsrTwQdh2jspl4BZEB707A9fT9FBKkXKmV42nYVJtlHZharRdS7hHp8RT96bTKXU0yjglTUj5WHPkaxQRP5LEn65sMCHM9bGn0amOdBVfjULC1bBcuOJV5Gg7BUt4mjSsIuM?authuser=0&fife=s16383", "Code": null }, "geometry": { "type": "Point", "coordinates": [ -4.2296791, 55.7621054, 0.0 ] } }
]
}
