{
  "type": "FeatureCollection",
  "features": [
    {
      "type": "Feature",
      "properties": {
        "name": "Under Central",
        "type": "access_point",
        "notes": ""
      },
      "geometry": {
        "type": "Point",
        "coordinates": [
          -4.2590511,
          55.8590202,
          0.0
        ]
      }
    },
    {
      "type": "Feature",
      "properties": {
        "name": "Clyde Place",
        "type": "access_point",
        "notes": ""
      },
      "geometry": {
        "type": "Point",
        "coordinates": [
          -4.2587834,
          55.854529,
          0.0
        ]
      }
    },
    {
      "type": "Feature",
      "properties": {
        "name": "Arch 67",
        "type": "access_point",
        "notes": ""
      },
      "geometry": {
        "type": "Point",
        "coordinates": [
          -4.2603766,
          55.8527614,
          0.0
        ]
      }
    },
    {
      "type": "Feature",
      "properties": {
        "name": "Salkeld Street signal box",
        "type": "access_point",
        "notes": ""
      },
      "geometry": {
        "type": "Point",
        "coordinates": [
          -4.2612716,
          55.8504238,
          0.0
        ]
      }
    },
    {
      "type": "Feature",
      "properties": {
        "name": "Salkeld Street",
        "type": "access_point",
        "notes": ""
      },
      "geometry": {
        "type": "Point",
        "coordinates": [
          -4.2607459,
          55.8492312,
          0.0
        ]
      }
    },
    {
      "type": "Feature",
      "properties": {
        "name": "Eglinton Street",
        "type": "access_point",
        "notes": ""
      },
      "geometry": {
        "type": "Point",
        "coordinates": [
          -4.2603489,
          55.8492071,
          0.0
        ]
      }
    },
    {
      "type": "Feature",
      "properties": {
        "name": "Cook Street",
        "type": "access_point",
        "notes": ""
      },
      "geometry": {
        "type": "Point",
        "coordinates": [
          -4.2652198,
          55.8492312,
          0.0
        ]
      }
    },
    {
      "type": "Feature",
      "properties": {
        "name": "Blue Best Fit Garage Steps",
        "type": "access_point",
        "notes": ""
      },
      "geometry": {
        "type": "Point",
        "coordinates": [
          -4.2618227,
          55.8452725,
          0.0
        ]
      }
    },
    {
      "type": "Feature",
      "properties": {
        "name": "Back of Garage (Muirhouse line)",
        "type": "access_point",
        "notes": ""
      },
      "geometry": {
        "type": "Point",
        "coordinates": [
          -4.262358,
          55.8453754,
          0.0
        ]
      }
    },
    {
      "type": "Feature",
      "properties": {
        "name": "Star Bar (WCM/CLY)",
        "type": "access_point",
        "notes": ""
      },
      "geometry": {
        "type": "Point",
        "coordinates": [
          -4.2612813,
          55.8437502,
          0.0
        ]
      }
    },
    {
      "type": "Feature",
      "properties": {
        "name": "Star Bar (Larkfield Junction)",
        "type": "access_point",
        "notes": ""
      },
      "geometry": {
        "type": "Point",
        "coordinates": [
          -4.2616407,
          55.8434761,
          0.0
        ]
      }
    },
    {
      "type": "Feature",
      "properties": {
        "name": "Polmadie",
        "type": "access_point",
        "notes": ""
      },
      "geometry": {
        "type": "Point",
        "coordinates": [
          -4.2492921,
          55.8392687,
          0.0
        ]
      }
    },
    {
      "type": "Feature",
      "properties": {
        "name": "Polmadie gate",
        "type": "access_point",
        "notes": ""
      },
      "geometry": {
        "type": "Point",
        "coordinates": [
          -4.2441969,
          55.8375124,
          0.0
        ]
      }
    },
    {
      "type": "Feature",
      "properties": {
        "name": "Polmadie Bridge",
        "type": "access_point",
        "notes": ""
      },
      "geometry": {
        "type": "Point",
        "coordinates": [
          -4.2424803,
          55.8364641,
          0.0
        ]
      }
    },
    {
      "type": "Feature",
      "properties": {
        "name": "Alstom yard",
        "type": "access_point",
        "notes": ""
      },
      "geometry": {
        "type": "Point",
        "coordinates": [
          -4.2416229,
          55.836746,
          0.0
        ]
      }
    },
    {
      "type": "Feature",
      "properties": {
        "name": "Jessie Street",
        "type": "access_point",
        "notes": ""
      },
      "geometry": {
        "type": "Point",
        "coordinates": [
          -4.2386035,
          55.8346482,
          0.0
        ]
      }
    },
    {
      "type": "Feature",
      "properties": {
        "name": "Glencairn",
        "type": "access_point",
        "notes": ""
      },
      "geometry": {
        "type": "Point",
        "coordinates": [
          -4.2220262,
          55.8313044,
          0.0
        ]
      }
    },
    {
      "type": "Feature",
      "properties": {
        "name": "Old Training School West Curve",
        "type": "access_point",
        "notes": ""
      },
      "geometry": {
        "type": "Point",
        "coordinates": [
          -4.2146884,
          55.8317864,
          0.0
        ]
      }
    },
    {
      "type": "Feature",
      "properties": {
        "name": "Rutherglen Steps",
        "type": "access_point",
        "notes": ""
      },
      "geometry": {
        "type": "Point",
        "coordinates": [
          -4.2161207,
          55.8303538,
          0.0
        ]
      }
    },
    {
      "type": "Feature",
      "properties": {
        "name": "Bridgeton Yard",
        "type": "access_point",
        "notes": ""
      },
      "geometry": {
        "type": "Point",
        "coordinates": [
          -4.2126045,
          55.8308338,
          0.0
        ]
      }
    },
    {
      "type": "Feature",
      "properties": {
        "name": "Rutherglen Relay Room",
        "type": "access_point",
        "notes": ""
      },
      "geometry": {
        "type": "Point",
        "coordinates": [
          -4.211832,
          55.8304451,
          0.0
        ]
      }
    },
    {
      "type": "Feature",
      "properties": {
        "name": "Granny Flats",
        "type": "access_point",
        "notes": ""
      },
      "geometry": {
        "type": "Point",
        "coordinates": [
          -4.2054533,
          55.829221,
          0.0
        ]
      }
    },
    {
      "type": "Feature",
      "properties": {
        "name": "Coup",
        "type": "access_point",
        "notes": ""
      },
      "geometry": {
        "type": "Point",
        "coordinates": [
          -4.1979987,
          55.8289974,
          0.0
        ]
      }
    },
    {
      "type": "Feature",
      "properties": {
        "name": "Bogleshole",
        "type": "access_point",
        "notes": ""
      },
      "geometry": {
        "type": "Point",
        "coordinates": [
          -4.1868023,
          55.8266174,
          0.0
        ]
      }
    },
    {
      "type": "Feature",
      "properties": {
        "name": "Fratellis",
        "type": "access_point",
        "notes": ""
      },
      "geometry": {
        "type": "Point",
        "coordinates": [
          -4.1815952,
          55.8234519,
          0.0
        ]
      }
    },
   {
      "type": "Feature",
      "properties": {
        "name": "Christie Place",
        "type": "access_point",
        "notes": ""
      },
      "geometry": {
        "type": "Point",
        "coordinates": [
          -4.1639552,
          55.8179699,
          0.0
        ]
      }
    },
    {
      "type": "Feature",
      "properties": {
        "name": "Kirkhill Relay Room",
        "type": "access_point",
        "notes": ""
      },
      "geometry": {
        "type": "Point",
        "coordinates": [
          -4.1554057,
          55.8149076,
          0.0
        ]
      }
    },
    {
      "type": "Feature",
      "properties": {
        "name": "Vicarland Place",
        "type": "access_point",
        "notes": ""
      },
      "geometry": {
        "type": "Point",
        "coordinates": [
          -4.1656893,
          55.8138587,
          0.0
        ]
      }
    },
    {
      "type": "Feature",
      "properties": {
        "name": "West Coats Road",
        "type": "access_point",
        "notes": ""
      },
      "geometry": {
        "type": "Point",
        "coordinates": [
          -4.1772043,
          55.8149426,
          0.0
        ]
      }
    },
    {
      "type": "Feature",
      "properties": {
        "name": "Burnside Hotel",
        "type": "access_point",
        "notes": ""
      },
      "geometry": {
        "type": "Point",
        "coordinates": [
          -4.1974844,
          55.8161703,
          0.0
        ]
      }
    },
    {
      "type": "Feature",
      "properties": {
        "name": "Blairtum Drive",
        "type": "access_point",
        "notes": ""
      },
      "geometry": {
        "type": "Point",
        "coordinates": [
          -4.2064522,
          55.8167464,
          0.0
        ]
      }
    },
    {
      "type": "Feature",
      "properties": {
        "name": "Aikenhead Road Bus Stop",
        "type": "access_point",
        "notes": ""
      },
      "geometry": {
        "type": "Point",
        "coordinates": [
          -4.2503071,
          55.8198203,
          0.0
        ]
      }
    },
    {
      "type": "Feature",
      "properties": {
        "name": "Fence to North Curve/locs",
        "type": "access_point",
        "notes": "Not official access"
      },
      "geometry": {
        "type": "Point",
        "coordinates": [
          -4.252382,
          55.820012,
          0.0
        ]
      }
    },
    {
      "type": "Feature",
      "properties": {
        "name": "Cathcart REB",
        "type": "access_point",
        "notes": ""
      },
      "geometry": {
        "type": "Point",
        "coordinates": [
          -4.2581196,
          55.8198495,
          0.0
        ]
      }
    },
    {
      "type": "Feature",
      "properties": {
        "name": "Kirkhills (Cathcart)",
        "type": "access_point",
        "notes": ""
      },
      "geometry": {
        "type": "Point",
        "coordinates": [
          -4.2578031,
          55.8184164,
          0.0
        ]
      }
    },
    {
      "type": "Feature",
      "properties": {
        "name": "Beechings",
        "type": "access_point",
        "notes": ""
      },
      "geometry": {
        "type": "Point",
        "coordinates": [
          -4.2639486,
          55.8165305,
          0.0
        ]
      }
    },
    {
      "type": "Feature",
      "properties": {
        "name": "Elrig Road",
        "type": "access_point",
        "notes": ""
      },
      "geometry": {
        "type": "Point",
        "coordinates": [
          -4.265916,
          55.8159775,
          0.0
        ]
      }
    },
    {
      "type": "Feature",
      "properties": {
        "name": "Muirskeith Crescent",
        "type": "access_point",
        "notes": ""
      },
      "geometry": {
        "type": "Point",
        "coordinates": [
          -4.2672152,
          55.8174477,
          0.0
        ]
      }
    },
    {
      "type": "Feature",
      "properties": {
        "name": "Whitemoss Avenue (Muirend)",
        "type": "access_point",
        "notes": ""
      },
      "geometry": {
        "type": "Point",
        "coordinates": [
          -4.274769,
          55.8095136,
          0.0
        ]
      }
    },
    {
      "type": "Feature",
      "properties": {
        "name": "Ailsa Drive",
        "type": "access_point",
        "notes": ""
      },
      "geometry": {
        "type": "Point",
        "coordinates": [
          -4.3000375,
          55.7916551,
          0.0
        ]
      }
    },
    {
      "type": "Feature",
      "properties": {
        "name": "Aurs Road",
        "type": "access_point",
        "notes": ""
      },
      "geometry": {
        "type": "Point",
        "coordinates": [
          -4.3735081,
          55.7893298,
          0.0
        ]
      }
    },
    {
      "type": "Feature",
      "properties": {
        "name": "Balgraystone Road",
        "type": "access_point",
        "notes": ""
      },
      "geometry": {
        "type": "Point",
        "coordinates": [
          -4.3829061,
          55.7864415,
          0.0
        ]
      }
    },
    {
      "type": "Feature",
      "properties": {
        "name": "Springhill Road/Five Ways",
        "type": "access_point",
        "notes": ""
      },
      "geometry": {
        "type": "Point",
        "coordinates": [
          -4.3957028,
          55.7851508,
          0.0
        ]
      }
    },
    {
      "type": "Feature",
      "properties": {
        "name": "Springfield Road",
        "type": "access_point",
        "notes": ""
      },
      "geometry": {
        "type": "Point",
        "coordinates": [
          -4.3995115,
          55.7867675,
          0.0
        ]
      }
    },
    {
      "type": "Feature",
      "properties": {
        "name": "Duncarnock Crescent",
        "type": "access_point",
        "notes": ""
      },
      "geometry": {
        "type": "Point",
        "coordinates": [
          -4.4189706,
          55.7837036,
          0.0
        ]
      }
    },
    {
      "type": "Feature",
      "properties": {
        "name": "Kittoch Park",
        "type": "access_point",
        "notes": ""
      },
      "geometry": {
        "type": "Point",
        "coordinates": [
          -4.1941033,
          55.7654205,
          0.0
        ]
      }
    },
    {
      "type": "Feature",
      "properties": {
        "name": "Hairmyres old station",
        "type": "access_point",
        "notes": ""
      },
      "geometry": {
        "type": "Point",
        "coordinates": [
          -4.2201357,
          55.7618196,
          0.0
        ]
      }
    },
    {
      "type": "Feature",
      "properties": {
        "name": "Electricity substation",
        "type": "access_point",
        "notes": ""
      },
      "geometry": {
        "type": "Point",
        "coordinates": [
          -4.2609669,
          55.7746518,
          0.0
        ]
      }
    },
    {
      "type": "Feature",
      "properties": {
        "name": "Happy Days nursery",
        "type": "access_point",
        "notes": ""
      },
      "geometry": {
        "type": "Point",
        "coordinates": [
          -4.2632414,
          55.7821189,
          0.0
        ]
      }
    },
    {
      "type": "Feature",
      "properties": {
        "name": "Moray Drive",
        "type": "access_point",
        "notes": ""
      },
      "geometry": {
        "type": "Point",
        "coordinates": [
          -4.2701892,
          55.7874901,
          0.0
        ]
      }
    },
    {
      "type": "Feature",
      "properties": {
        "name": "Burnfield Road",
        "type": "access_point",
        "notes": ""
      },
      "geometry": {
        "type": "Point",
        "coordinates": [
          -4.2989382,
          55.8084901,
          0.0
        ]
      }
    },
    {
      "type": "Feature",
      "properties": {
        "name": "Lane off Boydstone Road",
        "type": "access_point",
        "notes": ""
      },
      "geometry": {
        "type": "Point",
        "coordinates": [
          -4.3127663,
          55.8123415,
          0.0
        ]
      }
    },
    {
      "type": "Feature",
      "properties": {
        "name": "Busby Junction Relay Room",
        "type": "access_point",
        "notes": ""
      },
      "geometry": {
        "type": "Point",
        "coordinates": [
          -4.3090771,
          55.8187988,
          0.0
        ]
      }
    },
    {
      "type": "Feature",
      "properties": {
        "name": "Busby Junction high flats",
        "type": "access_point",
        "notes": ""
      },
      "geometry": {
        "type": "Point",
        "coordinates": [
          -4.3051289,
          55.8207412,
          0.0
        ]
      }
    },
    {
      "type": "Feature",
      "properties": {
        "name": "Busby Junction opposite high flats",
        "type": "access_point",
        "notes": ""
      },
      "geometry": {
        "type": "Point",
        "coordinates": [
          -4.3058638,
          55.8210712,
          0.0
        ]
      }
    },
    {
      "type": "Feature",
      "properties": {
        "name": "Under M77",
        "type": "access_point",
        "notes": ""
      },
      "geometry": {
        "type": "Point",
        "coordinates": [
          -4.3330773,
          55.8118727,
          0.0
        ]
      }
    },
    {
      "type": "Feature",
      "properties": {
        "name": "Nitshill REB",
        "type": "access_point",
        "notes": ""
      },
      "geometry": {
        "type": "Point",
        "coordinates": [
          -4.3562015,
          55.8121513,
          0.0
        ]
      }
    },
    {
      "type": "Feature",
      "properties": {
        "name": "Nitshill ES",
        "type": "access_point",
        "notes": ""
      },
      "geometry": {
        "type": "Point",
        "coordinates": [
          -4.3557549,
          55.8117824,
          0.0
        ]
      }
    },
    {
      "type": "Feature",
      "properties": {
        "name": "Cemetery",
        "type": "access_point",
        "notes": ""
      },
      "geometry": {
        "type": "Point",
        "coordinates": [
          -4.3776233,
          55.812267,
          0.0
        ]
      }
    },
    {
      "type": "Feature",
      "properties": {
        "name": "Former Shanks site",
        "type": "access_point",
        "notes": "Access via Blackbyres Road.\nPadlock Code 9476."
      },
      "geometry": {
        "type": "Point",
        "coordinates": [
          -4.390789102810004,
          55.811709699385716,
          0.0
        ]
      }
    },
    {
      "type": "Feature",
      "properties": {
        "name": "Magnet Haggs Gate",
        "type": "access_point",
        "notes": ""
      },
      "geometry": {
        "type": "Point",
        "coordinates": [
          -4.2962929,
          55.8290815,
          0.0
        ]
      }
    },
    {
      "type": "Feature",
      "properties": {
        "name": "Heries Road",
        "type": "access_point",
        "notes": ""
      },
      "geometry": {
        "type": "Point",
        "coordinates": [
          -4.2932099,
          55.8306635,
          0.0
        ]
      }
    },
    {
      "type": "Feature",
      "properties": {
        "name": "Heries Road (other place to park)",
        "type": "access_point",
        "notes": ""
      },
      "geometry": {
        "type": "Point",
        "coordinates": [
          -4.2925339,
          55.8303721,
          0.0
        ]
      }
    },
    {
      "type": "Feature",
      "properties": {
        "name": "Darnley Road opp Mariscat",
        "type": "access_point",
        "notes": ""
      },
      "geometry": {
        "type": "Point",
        "coordinates": [
          -4.2785251,
          55.8360553,
          0.0
        ]
      }
    },
    {
      "type": "Feature",
      "properties": {
        "name": "Darnley Road 684pts",
        "type": "access_point",
        "notes": ""
      },
      "geometry": {
        "type": "Point",
        "coordinates": [
          -4.2737171,
          55.8378292,
          0.0
        ]
      }
    },
    {
      "type": "Feature",
      "properties": {
        "name": "Birdshit points roundabout",
        "type": "access_point",
        "notes": ""
      },
      "geometry": {
        "type": "Point",
        "coordinates": [
          -4.2722807,
          55.8378902,
          0.0
        ]
      }
    },
    {
      "type": "Feature",
      "properties": {
        "name": "Muirhouse Slope",
        "type": "access_point",
        "notes": ""
      },
      "geometry": {
        "type": "Point",
        "coordinates": [
          -4.2695638,
          55.841135,
          0.0
        ]
      }
    },
    {
      "type": "Feature",
      "properties": {
        "name": "Shawmoss Road",
        "type": "access_point",
        "notes": ""
      },
      "geometry": {
        "type": "Point",
        "coordinates": [
          -4.2936412,
          55.8317751,
          0.0
        ]
      }
    },
    {
      "type": "Feature",
      "properties": {
        "name": "Post Office",
        "type": "access_point",
        "notes": ""
      },
      "geometry": {
        "type": "Point",
        "coordinates": [
          -4.2693554,
          55.8475661,
          0.0
        ]
      }
    },
    {
      "type": "Feature",
      "properties": {
        "name": "Terminus",
        "type": "access_point",
        "notes": ""
      },
      "geometry": {
        "type": "Point",
        "coordinates": [
          -4.267989,
          55.8472695,
          0.0
        ]
      }
    },
    {
      "type": "Feature",
      "properties": {
        "name": "Shields Road Bridge",
        "type": "access_point",
        "notes": ""
      },
      "geometry": {
        "type": "Point",
        "coordinates": [
          -4.2748172,
          55.8478789,
          0.0
        ]
      }
    },
    {
      "type": "Feature",
      "properties": {
        "name": "Offices (CLY)",
        "type": "access_point",
        "notes": ""
      },
      "geometry": {
        "type": "Point",
        "coordinates": [
          -4.276292,
          55.8479563,
          0.0
        ]
      }
    },
    {
      "type": "Feature",
      "properties": {
        "name": "Marlow Terrace",
        "type": "access_point",
        "notes": ""
      },
      "geometry": {
        "type": "Point",
        "coordinates": [
          -4.2787192,
          55.8477154,
          0.0
        ]
      }
    },
    {
      "type": "Feature",
      "properties": {
        "name": "Trespass",
        "type": "access_point",
        "notes": ""
      },
      "geometry": {
        "type": "Point",
        "coordinates": [
          -4.2831186,
          55.8490387,
          0.0
        ]
      }
    },
    {
      "type": "Feature",
      "properties": {
        "name": "Shields depot",
        "type": "access_point",
        "notes": ""
      },
      "geometry": {
        "type": "Point",
        "coordinates": [
          -4.2832204,
          55.8467013,
          0.0
        ]
      }
    },
    {
      "type": "Feature",
      "properties": {
        "name": "Academy Park",
        "type": "access_point",
        "notes": ""
      },
      "geometry": {
        "type": "Point",
        "coordinates": [
          -4.2973287,
          55.8483193,
          0.0
        ]
      }
    },
    {
      "type": "Feature",
      "properties": {
        "name": "Richie’s slope",
        "type": "access_point",
        "notes": ""
      },
      "geometry": {
        "type": "Point",
        "coordinates": [
          -4.2969961,
          55.8488283,
          0.0
        ]
      }
    },
    {
      "type": "Feature",
      "properties": {
        "name": "Gate on M8",
        "type": "access_point",
        "notes": ""
      },
      "geometry": {
        "type": "Point",
        "coordinates": [
          -4.3066331,
          55.8491976,
          0.0
        ]
      }
    },
    {
      "type": "Feature",
      "properties": {
        "name": "Park here for M8",
        "type": "access_point",
        "notes": ""
      },
      "geometry": {
        "type": "Point",
        "coordinates": [
          -4.3052285,
          55.8496447,
          0.0
        ]
      }
    },
    {
      "type": "Feature",
      "properties": {
        "name": "Pit Stop garage",
        "type": "access_point",
        "notes": "Ladder"
      },
      "geometry": {
        "type": "Point",
        "coordinates": [
          -4.3096974,
          55.8498019,
          0.0
        ]
      }
    },
    {
      "type": "Feature",
      "properties": {
        "name": "Ibrox",
        "type": "access_point",
        "notes": ""
      },
      "geometry": {
        "type": "Point",
        "coordinates": [
          -4.3134908,
          55.85028,
          0.0
        ]
      }
    },
    {
      "type": "Feature",
      "properties": {
        "name": "McDonalds",
        "type": "access_point",
        "notes": ""
      },
      "geometry": {
        "type": "Point",
        "coordinates": [
          -4.3194313,
          55.8509293,
          0.0
        ]
      }
    },
    {
      "type": "Feature",
      "properties": {
        "name": "Industrial estate big puddle",
        "type": "access_point",
        "notes": ""
      },
      "geometry": {
        "type": "Point",
        "coordinates": [
          -4.3306087,
          55.8514169,
          0.0
        ]
      }
    },
    {
      "type": "Feature",
      "properties": {
        "name": "Cardonald flats",
        "type": "access_point",
        "notes": ""
      },
      "geometry": {
        "type": "Point",
        "coordinates": [
          -4.3453955,
          55.8531194,
          0.0
        ]
      }
    },
    {
      "type": "Feature",
      "properties": {
        "name": "Cardonald offices",
        "type": "access_point",
        "notes": ""
      },
      "geometry": {
        "type": "Point",
        "coordinates": [
          -4.3470623,
          55.8537569,
          0.0
        ]
      }
    },
    {
      "type": "Feature",
      "properties": {
        "name": "Deanside bus stop",
        "type": "access_point",
        "notes": ""
      },
      "geometry": {
        "type": "Point",
        "coordinates": [
          -4.3522531,
          55.8573467,
          0.0
        ]
      }
    },
    {
      "type": "Feature",
      "properties": {
        "name": "Clyde Power",
        "type": "access_point",
        "notes": ""
      },
      "geometry": {
        "type": "Point",
        "coordinates": [
          -4.3531889,
          55.8602888,
          0.0
        ]
      }
    },
    {
      "type": "Feature",
      "properties": {
        "name": "No fence",
        "type": "access_point",
        "notes": "Unofficial"
      },
      "geometry": {
        "type": "Point",
        "coordinates": [
          -4.3647788,
          55.867684,
          0.0
        ]
      }
    },
    {
      "type": "Feature",
      "properties": {
        "name": "Motorway gate",
        "type": "access_point",
        "notes": ""
      },
      "geometry": {
        "type": "Point",
        "coordinates": [
          -4.3135314,
          55.8397032,
          0.0
        ]
      }
    },
    {
      "type": "Feature",
      "properties": {
        "name": "Corkerhill depot",
        "type": "access_point",
        "notes": ""
      },
      "geometry": {
        "type": "Point",
        "coordinates": [
          -4.3271718,
          55.8355931,
          0.0
        ]
      }
    },
    {
      "type": "Feature",
      "properties": {
        "name": "Linside Avenue",
        "type": "access_point",
        "notes": ""
      },
      "geometry": {
        "type": "Point",
        "coordinates": [
          -4.4035785,
          55.8418175,
          0.0
        ]
      }
    },
    {
      "type": "Feature",
      "properties": {
        "name": "Kinnell Crescent",
        "type": "access_point",
        "notes": ""
      },
      "geometry": {
        "type": "Point",
        "coordinates": [
          -4.3448868,
          55.8403099,
          0.0
        ]
      }
    },
    {
      "type": "Feature",
      "properties": {
        "name": "Strathclyde Street",
        "type": "access_point",
        "notes": ""
      },
      "geometry": {
        "type": "Point",
        "coordinates": [
          -4.2169429,
          55.8384472,
          0.0
        ]
      }
    },
    {
      "type": "Feature",
      "properties": {
        "name": "Queens Park Skatepark",
        "type": "access_point",
        "notes": ""
      },
      "geometry": {
        "type": "Point",
        "coordinates": [
          -4.2590981,
          55.8290659,
          0.0
        ]
      }
    },
    {
      "type": "Feature",
      "properties": {
        "name": "Shunter's Bothy",
        "type": "area",
        "notes": ""
      },
      "geometry": {
        "type": "Polygon",
        "coordinates": [
          [
            [
              -4.3219375,
              55.8368372,
              0.0
            ],
            [
              -4.3218959,
              55.8368082,
              0.0
            ],
            [
              -4.321802,
              55.8368519,
              0.0
            ],
            [
              -4.3218436,
              55.8368802,
              0.0
            ],
            [
              -4.3219375,
              55.8368372,
              0.0
            ]
          ]
        ]
      }
    },
    {
      "type": "Feature",
      "properties": {
        "name": "Cathcart Road",
        "type": "access_point",
        "notes": ""
      },
      "geometry": {
        "type": "Point",
        "coordinates": [
          -4.2555234,
          55.8310249,
          0.0
        ]
      }
    },
    {
      "type": "Feature",
      "properties": {
        "name": "Academy Park (Corkerhills)",
        "type": "access_point",
        "notes": ""
      },
      "geometry": {
        "type": "Point",
        "coordinates": [
          -4.2964157,
          55.8471045,
          0.0
        ]
      }
    },
    {
      "type": "Feature",
      "properties": {
        "name": "Carmyles Stairs",
        "type": "access_point",
        "notes": ""
      },
      "geometry": {
        "type": "Point",
        "coordinates": [
          -4.1941402,
          55.8284989,
          0.0
        ]
      }
    },
    {
      "type": "Feature",
      "properties": {
        "name": "Bridgegate",
        "type": "access_point",
        "notes": ""
      },
      "geometry": {
        "type": "Point",
        "coordinates": [
          -4.2485101,
          55.8538547,
          0.0
        ]
      }
    },
    {
      "type": "Feature",
      "properties": {
        "name": "Tannahill Road",
        "type": "access_point",
        "notes": ""
      },
      "geometry": {
        "type": "Point",
        "coordinates": [
          -4.2754209,
          55.8205144,
          0.0
        ]
      }
    },
    {
      "type": "Feature",
      "properties": {
        "name": "Prospect Road",
        "type": "access_point",
        "notes": ""
      },
      "geometry": {
        "type": "Point",
        "coordinates": [
          -4.291279,
          55.8272877,
          0.0
        ]
      }
    },
    {
      "type": "Feature",
      "properties": {
        "name": "Kirktonholme Road",
        "type": "access_point",
        "notes": ""
      },
      "geometry": {
        "type": "Point",
        "coordinates": [
          -4.205,
          55.7652366,
          0.0
        ]
      }
    },
    {
      "type": "Feature",
      "properties": {
        "name": "Queensway",
        "type": "access_point",
        "notes": ""
      },
      "geometry": {
        "type": "Point",
        "coordinates": [
          -4.2081357,
          55.7648979,
          0.0
        ]
      }
    },
    {
      "type": "Feature",
      "properties": {
        "name": "Tennant Avenue",
        "type": "access_point",
        "notes": ""
      },
      "geometry": {
        "type": "Point",
        "coordinates": [
          -4.2141941,
          55.7633983,
          0.0
        ]
      }
    },
    {
      "type": "Feature",
      "properties": {
        "name": "Clydebridge Steelworks",
        "type": "access_point",
        "notes": ""
      },
      "geometry": {
        "type": "Point",
        "coordinates": [
          -4.1844044,
          55.8300861,
          0.0
        ]
      }
    },
    {
      "type": "Feature",
      "properties": {
        "name": "Crossmyloof RRAP",
        "type": "access_point",
        "notes": ""
      },
      "geometry": {
        "type": "Point",
        "coordinates": [
          -4.2823896,
          55.8347415,
          0.0
        ]
      }
    },
    {
      "type": "Feature",
      "properties": {
        "name": "Halfway Yard",
        "type": "access_point",
        "notes": ""
      },
      "geometry": {
        "type": "Point",
        "coordinates": [
          -4.1536216,
          55.8151315,
          0.0
        ]
      }
    },
    {
      "type": "Feature",
      "properties": {
        "name": "Kirkton Gate",
        "type": "access_point",
        "notes": ""
      },
      "geometry": {
        "type": "Point",
        "coordinates": [
          -4.1819011,
          55.7659557,
          0.0
        ]
      }
    },
    {
      "type": "Feature",
      "properties": {
        "name": "Kilmarnock Road",
        "type": "access_point",
        "notes": ""
      },
      "geometry": {
        "type": "Point",
        "coordinates": [
          -4.286156,
          55.8241472,
          0.0
        ]
      }
    },
    {
      "type": "Feature",
      "properties": {
        "name": "Walking route",
        "type": "route",
        "notes": ""
      },
      "geometry": {
        "type": "LineString",
        "coordinates": [
          [
            -4.3052285,
            55.8496447,
            0.0
          ],
          [
            -4.3053269,
            55.8496397,
            0.0
          ],
          [
            -4.305402,
            55.8493898,
            0.0
          ],
          [
            -4.3056889,
            55.8491775,
            0.0
          ],
          [
            -4.3059411,
            55.8491654,
            0.0
          ],
          [
            -4.3066063,
            55.8491594,
            0.0
          ],
          [
            -4.3066331,
            55.8491976,
            0.0
          ]
        ]
      }
    },
    {
      "type": "Feature",
      "properties": {
        "name": "Path",
        "type": "route",
        "notes": ""
      },
      "geometry": {
        "type": "LineString",
        "coordinates": [
          [
            -4.2702895,
            55.8393452,
            0.0
          ],
          [
            -4.2698952,
            55.8392714,
            0.0
          ]
        ]
      }
    },
    {
      "type": "Feature",
      "properties": {
        "name": "House of Sher",
        "type": "access_point",
        "notes": ""
      },
      "geometry": {
        "type": "Point",
        "coordinates": [
          -4.2626007,
          55.8456675,
          0.0
        ]
      }
    },
    {
      "type": "Feature",
      "properties": {
        "name": "Salkeld Street",
        "type": "access_point",
        "notes": "Main gate: 0534 Pedestrian gate: 4720"
      },
      "geometry": {
        "type": "Point",
        "coordinates": [
          -4.2609174,
          55.8495248,
          0.0
        ]
      }
    },
    {
      "type": "Feature",
      "properties": {
        "name": "Gate for Clydebridge Steelworks",
        "type": "access_point",
        "notes": "ACCESS MUST BE PREARRANGED."
      },
      "geometry": {
        "type": "Point",
        "coordinates": [
          -4.1935578,
          55.8294222,
          0.0
        ]
      }
    },
    {
      "type": "Feature",
      "properties": {
        "name": "New gate",
        "type": "access_point",
        "notes": "New path to station built at the end of the road, with a gate next to loc EKE 2/68."
      },
      "geometry": {
        "type": "Point",
        "coordinates": [
          -4.2767274,
          55.7902235,
          0.0
        ]
      }
    },
    {
      "type": "Feature",
      "properties": {
        "name": "New path",
        "type": "route",
        "notes": ""
      },
      "geometry": {
        "type": "LineString",
        "coordinates": [
          [
            -4.2762592,
            55.7899176,
            0.0
          ],
          [
            -4.2767247,
            55.7902416,
            0.0
          ],
          [
            -4.2769244,
            55.7904002,
            0.0
          ]
        ]
      }
    },
    {
      "type": "Feature",
      "properties": {
        "name": "Muirhouse Relay Room",
        "type": "access_point",
        "notes": ""
      },
      "geometry": {
        "type": "Point",
        "coordinates": [
          -4.2700782,
          55.8403722,
          0.0
        ]
      }
    },
    {
      "type": "Feature",
      "properties": {
        "name": "Route to access from gate",
        "type": "route",
        "notes": ""
      },
      "geometry": {
        "type": "LineString",
        "coordinates": [
          [
            -4.3895676,
            55.8083115,
            0.0
          ],
          [
            -4.3897155,
            55.8083019,
            0.0
          ],
          [
            -4.3904535,
            55.8077979,
            0.0
          ],
          [
            -4.3907539,
            55.8077135,
            0.0
          ],
          [
            -4.3910972,
            55.8076954,
            0.0
          ],
          [
            -4.3912474,
            55.8077979,
            0.0
          ],
          [
            -4.3919233,
            55.8100408,
            0.0
          ],
          [
            -4.3919233,
            55.8102819,
            0.0
          ],
          [
            -4.3918053,
            55.8104809,
            0.0
          ],
          [
            -4.3910758,
            55.8111019,
            0.0
          ],
          [
            -4.3907432,
            55.8116806,
            0.0
          ]
        ]
      }
    },
    {
      "type": "Feature",
      "properties": {
        "name": "Hairmyres New",
        "type": "access_point",
        "notes": ""
      },
      "geometry": {
        "type": "Point",
        "coordinates": [
          -4.2296791,
          55.7621054,
          0.0
        ]
      }
    }
  ]
}
